{
  "AK": { "name": "Alaska", "latitude": 61.385, "longitude": -152.2683 },
  "AL": { "name": "Alabama", "latitude": 32.799, "longitude": -86.8073 },
  "AR": { "name": "Arkansas", "latitude": 34.9513, "longitude": -92.3809 },
  "AS": { "name": "American Samoa", "latitude": 14.2417, "longitude": -170.7197 },
  "AZ": { "name": "Arizona", "latitude": 33.7712, "longitude": -111.3877 },
  "CA": { "name": "California", "latitude": 36.17, "longitude": -119.7462 },
  "CO": { "name": "Colorado", "latitude": 39.0646, "longitude": -105.3272 },
  "CT": { "name": "Connecticut", "latitude": 41.5834, "longitude": -72.7622 },
  "DC": { "name": "Washington DC", "latitude": 38.8964, "longitude": -77.0262 },
  "DE": { "name": "Delaware", "latitude": 39.3498, "longitude": -75.5148 },
  "FL": { "name": "Florida", "latitude": 27.8333, "longitude": -81.717 },
  "GA": { "name": "Georgia", "latitude": 32.9866, "longitude": -83.6487 },
  "HI": { "name": "Hawaii", "latitude": 21.1098, "longitude": -157.5311 },
  "IA": { "name": "Iowa", "latitude": 42.0046, "longitude": -93.214 },
  "ID": { "name": "Idaho", "latitude": 44.2394, "longitude": -114.5103 },
  "IL": { "name": "Illinois", "latitude": 40.3363, "longitude": -89.0022 },
  "IN": { "name": "Indiana", "latitude": 39.8647, "longitude": -86.2604 },
  "KS": { "name": "Kansas", "latitude": 38.5111, "longitude": -96.8005 },
  "KY": { "name": "Kentucky", "latitude": 37.669, "longitude": -84.6514 },
  "LA": { "name": "Louisiana", "latitude": 31.1801, "longitude": -91.8749 },
  "MA": { "name": "Massachusetts", "latitude": 42.2373, "longitude": -71.5314 },
  "MD": { "name": "Maryland", "latitude": 39.0724, "longitude": -76.7902 },
  "ME": { "name": "Maine", "latitude": 44.6074, "longitude": -69.3977 },
  "MI": { "name": "Michigan", "latitude": 43.3504, "longitude": -84.5603 },
  "MN": { "name": "Minnesota", "latitude": 45.7326, "longitude": -93.9196 },
  "MO": { "name": "Missouri", "latitude": 38.4623, "longitude": -92.302 },
  "MP": { "name": "Northern Mariana Islands", "latitude": 14.8058, "longitude": 145.5505 },
  "MS": { "name": "Mississippi", "latitude": 32.7673, "longitude": -89.6812 },
  "MT": { "name": "Montana", "latitude": 46.9048, "longitude": -110.3261 },
  "NC": { "name": "North Carolina", "latitude": 35.6411, "longitude": -79.8431 },
  "ND": { "name": "North Dakota", "latitude": 47.5362, "longitude": -99.793 },
  "NE": { "name": "Nebraska", "latitude": 41.1289, "longitude": -98.2883 },
  "NH": { "name": "New Hampshire", "latitude": 43.4108, "longitude": -71.5653 },
  "NJ": { "name": "New Jersey", "latitude": 40.314, "longitude": -74.5089 },
  "NM": { "name": "New Mexico", "latitude": 34.8375, "longitude": -106.2371 },
  "NV": { "name": "Nevada", "latitude": 38.4199, "longitude": -117.1219 },
  "NY": { "name": "New York", "latitude": 42.1497, "longitude": -74.9384 },
  "OH": { "name": "Ohio", "latitude": 40.3736, "longitude": -82.7755 },
  "OK": { "name": "Oklahoma", "latitude": 35.5376, "longitude": -96.9247 },
  "OR": { "name": "Oregon", "latitude": 44.5672, "longitude": -122.1269 },
  "PA": { "name": "Pennsylvania", "latitude": 40.5773, "longitude": -77.264 },
  "PR": { "name": "Puerto Rico", "latitude": 18.2766, "longitude": -66.335 },
  "RI": { "name": "Rhode Island", "latitude": 41.6772, "longitude": -71.5101 },
  "SC": { "name": "South Carolina", "latitude": 33.8191, "longitude": -80.9066 },
  "SD": { "name": "South Dakota", "latitude": 44.2853, "longitude": -99.4632 },
  "TN": { "name": "Tennessee", "latitude": 35.7449, "longitude": -86.7489 },
  "TX": { "name": "Texas", "latitude": 31.106, "longitude": -97.6475 },
  "UT": { "name": "Utah", "latitude": 40.1135, "longitude": -111.8535 },
  "VA": { "name": "Virginia", "latitude": 37.768, "longitude": -78.2057 },
  "VI": { "name": "U.S. Virgin Islands", "latitude": 18.0001, "longitude": -64.8199 },
  "VT": { "name": "Vermont", "latitude": 44.0407, "longitude": -72.7093 },
  "WA": { "name": "Washington", "latitude": 47.3917, "longitude": -121.5708 },
  "WI": { "name": "Wisconsin", "latitude": 44.2563, "longitude": -89.6385 },
  "WV": { "name": "West Virginia", "latitude": 38.468, "longitude": -80.9696 },
  "WY": { "name": "Wyoming", "latitude": 42.7475, "longitude": -107.2085 }
}
