[{"status": "OK", "results": [{"geometry": {"location_type": "APPROXIMATE", "bounds": {"northeast": {"lat": 36.3665602, "lng": 116.6522322}, "southwest": {"lat": 31.382371, "lng": 110.3604761}}, "viewport": {"northeast": {"lat": 36.3665602, "lng": 116.6522322}, "southwest": {"lat": 31.382371, "lng": 110.3604761}}, "location": {"lat": 34.765515, "lng": 113.753602}}, "address_components": [{"long_name": "Henan", "types": ["administrative_area_level_1", "political"], "short_name": "Henan"}, {"long_name": "China", "types": ["country", "political"], "short_name": "CN"}], "place_id": "ChIJYd_UVOOS1jURyxqiJ3gVsoI", "formatted_address": "Henan, China", "types": ["administrative_area_level_1", "political"]}]}, {"status": "OK", "results": [{"geometry": {"location_type": "APPROXIMATE", "bounds": {"northeast": {"lat": 35.0702359, "lng": 112.9847382}, "southwest": {"lat": 33.5705337, "lng": 111.1384439}}, "viewport": {"northeast": {"lat": 34.8307227, "lng": 112.6624238}, "southwest": {"lat": 34.4807805, "lng": 112.2338927}}, "location": {"lat": 34.619683, "lng": 112.45404}}, "address_components": [{"long_name": "Luoyang", "types": ["locality", "political"], "short_name": "Luoyang"}, {"long_name": "Henan", "types": ["administrative_area_level_1", "political"], "short_name": "Henan"}, {"long_name": "China", "types": ["country", "political"], "short_name": "CN"}], "place_id": "ChIJN0TQ8mhveDYRFSLHxuha-GE", "formatted_address": "Luoyang, Henan, China", "types": ["locality", "political"]}]}, {"status": "OK", "results": [{"geometry": {"location_type": "APPROXIMATE", "bounds": {"northeast": {"lat": 35.0252001, "lng": 115.2653969}, "southwest": {"lat": 34.19727, "lng": 113.8775726}}, "viewport": {"northeast": {"lat": 34.8739734, "lng": 114.5098114}, "southwest": {"lat": 34.6952105, "lng": 114.1994476}}, "location": {"lat": 34.797282, "lng": 114.307583}}, "address_components": [{"long_name": "Kaifeng", "types": ["locality", "political"], "short_name": "Kaifeng"}, {"long_name": "Henan", "types": ["administrative_area_level_1", "political"], "short_name": "Henan"}, {"long_name": "China", "types": ["country", "political"], "short_name": "CN"}], "place_id": "ChIJN_K2OCCZ0DURjEmBu3_W720", "formatted_address": "Kaifeng, Henan, China", "types": ["locality", "political"]}]}, {"status": "OK", "results": [{"geometry": {"location": {"lat": 35.222297, "lng": 113.235093}, "viewport": {"northeast": {"lat": 35.22364598029149, "lng": 113.2364419802915}, "southwest": {"lat": 35.22094801970849, "lng": 113.2337440197085}}, "location_type": "APPROXIMATE"}, "address_components": [{"long_name": "Jiaozuo Railway Station", "types": ["train_station", "transit_station", "point_of_interest", "establishment"], "short_name": "Jiaozuo Railway Station"}, {"long_name": "129", "types": ["street_number"], "short_name": "129"}, {"long_name": "Zhan Qian Lu", "types": ["route"], "short_name": "Zhan Qian Lu"}, {"long_name": "Jiefang Qu", "types": ["sublocality_level_1", "sublocality", "political"], "short_name": "Jiefang Qu"}, {"long_name": "Jiaozuo Shi", "types": ["locality", "political"], "short_name": "Jiaozuo Shi"}, {"long_name": "Henan Sheng", "types": ["administrative_area_level_1", "political"], "short_name": "Henan Sheng"}, {"long_name": "China", "types": ["country", "political"], "short_name": "CN"}, {"long_name": "454001", "types": ["postal_code"], "short_name": "454001"}], "place_id": "ChIJcdT86N4w2DURzMQapBccn1c", "formatted_address": "Jiaozuo Railway Station, 129 Zhan Qian Lu, Jiefang Qu, Jiaozuo Shi, Henan Sheng, China, 454001", "types": ["train_station", "transit_station", "point_of_interest", "establishment"]}, {"geometry": {"location_type": "APPROXIMATE", "bounds": {"northeast": {"lat": 35.4950443, "lng": 113.646866}, "southwest": {"lat": 34.811758, "lng": 112.5687751}}, "viewport": {"northeast": {"lat": 35.3196599, "lng": 113.366611}, "southwest": {"lat": 35.1299912, "lng": 113.0776942}}, "location": {"lat": 35.215893, "lng": 113.241823}}, "address_components": [{"long_name": "Jiaozuo", "types": ["locality", "political"], "short_name": "Jiaozuo"}, {"long_name": "Henan", "types": ["administrative_area_level_1", "political"], "short_name": "Henan"}, {"long_name": "China", "types": ["country", "political"], "short_name": "CN"}], "place_id": "ChIJ-Thl-Jkk2DURLKh8AiWxgVo", "formatted_address": "Jiaozuo, Henan, China", "types": ["locality", "political"]}]}, {"status": "OK", "results": [{"geometry": {"location": {"lat": 34.741222, "lng": 113.66245}, "viewport": {"northeast": {"lat": 34.7425709802915, "lng": 113.6637989802915}, "southwest": {"lat": 34.7398730197085, "lng": 113.6611010197085}}, "location_type": "APPROXIMATE"}, "address_components": [{"long_name": "郑州", "types": ["train_station", "transit_station", "point_of_interest", "establishment"], "short_name": "郑州"}, {"long_name": "火车站商圈", "types": ["neighborhood", "political"], "short_name": "火车站商圈"}, {"long_name": "二七区", "types": ["sublocality_level_1", "sublocality", "political"], "short_name": "二七区"}, {"long_name": "郑州", "types": ["locality", "political"], "short_name": "郑州"}, {"long_name": "China", "types": ["country", "political"], "short_name": "CN"}, {"long_name": "450000", "types": ["postal_code"], "short_name": "450000"}], "place_id": "ChIJaayEAfxl1zURPWtdhy4IHgM", "formatted_address": "China, 郑州市二七区火车站商圈郑州 邮政编码: 450000", "types": ["train_station", "transit_station", "point_of_interest", "establishment"]}, {"geometry": {"location_type": "APPROXIMATE", "bounds": {"northeast": {"lat": 34.9886143, "lng": 114.2207856}, "southwest": {"lat": 34.26210940000001, "lng": 112.721177}}, "viewport": {"northeast": {"lat": 34.9338694, "lng": 113.9749146}, "southwest": {"lat": 34.5513541, "lng": 113.3514404}}, "location": {"lat": 34.747041, "lng": 113.625805}}, "address_components": [{"long_name": "Zhengzhou", "types": ["locality", "political"], "short_name": "Zhengzhou"}, {"long_name": "Henan", "types": ["administrative_area_level_1", "political"], "short_name": "Henan"}, {"long_name": "China", "types": ["country", "political"], "short_name": "CN"}], "place_id": "ChIJnWqb8JRl1zURLO3M9BnuMnk", "formatted_address": "Zhengzhou, Henan, China", "types": ["locality", "political"]}]}, {"status": "OK", "results": [{"geometry": {"location_type": "APPROXIMATE", "bounds": {"northeast": {"lat": 33.8016733, "lng": 113.8144527}, "southwest": {"lat": 32.269201, "lng": 110.9828745}}, "viewport": {"northeast": {"lat": 33.1384765, "lng": 112.7310884}, "southwest": {"lat": 32.8560854, "lng": 112.3760712}}, "location": {"lat": 32.99083299999999, "lng": 112.528322}}, "address_components": [{"long_name": "Nanyang", "types": ["locality", "political"], "short_name": "Nanyang"}, {"long_name": "Henan", "types": ["administrative_area_level_1", "political"], "short_name": "Henan"}, {"long_name": "China", "types": ["country", "political"], "short_name": "CN"}], "place_id": "ChIJWaBvKKCGfzYRpjJaaWnQB1U", "formatted_address": "Nanyang, Henan, China", "types": ["locality", "political"]}]}, {"status": "OK", "results": [{"geometry": {"location_type": "GEOMETRIC_CENTER", "bounds": {"northeast": {"lat": 33.9846648, "lng": -79.15291359999999}, "southwest": {"lat": 33.9824368, "lng": -79.1541912}}, "viewport": {"northeast": {"lat": 33.9848997802915, "lng": -79.1522034197085}, "southwest": {"lat": 33.9822018197085, "lng": -79.1549013802915}}, "location": {"lat": 33.9835818, "lng": -79.1534295}}, "address_components": [{"long_name": "Location", "types": ["route"], "short_name": "Location"}, {"long_name": "Aynor", "types": ["locality", "political"], "short_name": "Aynor"}, {"long_name": "Horry County", "types": ["administrative_area_level_2", "political"], "short_name": "Horry County"}, {"long_name": "South Carolina", "types": ["administrative_area_level_1", "political"], "short_name": "SC"}, {"long_name": "United States", "types": ["country", "political"], "short_name": "US"}, {"long_name": "29511", "types": ["postal_code"], "short_name": "29511"}], "place_id": "ChIJzfBkCwAJAIkRh6R_0uWFT0c", "formatted_address": "Location, Aynor, SC 29511, USA", "types": ["route"]}, {"geometry": {"location_type": "APPROXIMATE", "bounds": {"northeast": {"lat": -25.7361219, "lng": 28.179474}, "southwest": {"lat": -25.7476371, "lng": 28.172127}}, "viewport": {"northeast": {"lat": -25.7361219, "lng": 28.179474}, "southwest": {"lat": -25.7476371, "lng": 28.172127}}, "location": {"lat": -25.7394229, "lng": 28.1758982}}, "address_components": [{"long_name": "Asiatic Bazaar", "types": ["sublocality_level_1", "sublocality", "political"], "short_name": "Asiatic Bazaar"}, {"long_name": "Pretoria", "types": ["locality", "political"], "short_name": "Pretoria"}, {"long_name": "Tshwane", "types": ["administrative_area_level_3", "political"], "short_name": "Tshwane"}, {"long_name": "Pretoria", "types": ["administrative_area_level_2", "political"], "short_name": "Pretoria"}, {"long_name": "Gauteng", "types": ["administrative_area_level_1", "political"], "short_name": "GP"}, {"long_name": "South Africa", "types": ["country", "political"], "short_name": "ZA"}], "place_id": "ChIJxdKUdnZilR4RPt8vwZ_E1do", "formatted_address": "Asiatic Bazaar, Pretoria, South Africa", "types": ["sublocality_level_1", "sublocality", "political"]}]}, {"status": "OK", "results": [{"geometry": {"location_type": "APPROXIMATE", "bounds": {"northeast": {"lat": 38.4011447, "lng": 122.7100401}, "southwest": {"lat": 34.3773522, "lng": 114.8246302}}, "viewport": {"northeast": {"lat": 38.4011447, "lng": 122.7100401}, "southwest": {"lat": 34.3773522, "lng": 114.8246302}}, "location": {"lat": 36.66853, "lng": 117.020359}}, "address_components": [{"long_name": "Shandong", "types": ["administrative_area_level_1", "political"], "short_name": "Shandong"}, {"long_name": "China", "types": ["country", "political"], "short_name": "CN"}], "place_id": "ChIJf0-rNUfNjzURZLPhcCMuOtk", "formatted_address": "Shandong, China", "types": ["administrative_area_level_1", "political"]}]}, {"status": "OK", "results": [{"geometry": {"location_type": "APPROXIMATE", "bounds": {"northeast": {"lat": 38.2675902, "lng": 118.387606}, "southwest": {"lat": 36.689651, "lng": 117.2734033}}, "viewport": {"northeast": {"lat": 37.573809, "lng": 118.2011533}, "southwest": {"lat": 37.2447893, "lng": 117.7531064}}, "location": {"lat": 37.38199, "lng": 117.970703}}, "address_components": [{"long_name": "Binzhou", "types": ["locality", "political"], "short_name": "Binzhou"}, {"long_name": "Shandong", "types": ["administrative_area_level_1", "political"], "short_name": "Shandong"}, {"long_name": "China", "types": ["country", "political"], "short_name": "CN"}], "place_id": "ChIJY0_a30gJ6zURu-8lgD2w1ww", "formatted_address": "Binzhou, Shandong, China", "types": ["locality", "political"]}]}, {"status": "OK", "results": [{"geometry": {"location_type": "APPROXIMATE", "bounds": {"northeast": {"lat": 37.1491186, "lng": 121.3965227}, "southwest": {"lat": 35.5779953, "lng": 119.5148251}}, "viewport": {"northeast": {"lat": 36.3313685, "lng": 120.6326294}, "southwest": {"lat": 35.9407727, "lng": 120.0970459}}, "location": {"lat": 36.067117, "lng": 120.382612}}, "address_components": [{"long_name": "Qingdao", "types": ["locality", "political"], "short_name": "Qingdao"}, {"long_name": "Shandong", "types": ["administrative_area_level_1", "political"], "short_name": "Shandong"}, {"long_name": "China", "types": ["country", "political"], "short_name": "CN"}], "place_id": "ChIJa_D4gtUPljUR8_JMYfqCTWE", "formatted_address": "Qingdao, Shandong, China", "types": ["locality", "political"]}]}, {"status": "OK", "results": [{"geometry": {"location": {"lat": 36.787289, "lng": 118.05711}, "viewport": {"northeast": {"lat": 36.7886379802915, "lng": 118.0584589802915}, "southwest": {"lat": 36.78594001970851, "lng": 118.0557610197085}}, "location_type": "APPROXIMATE"}, "address_components": [{"long_name": "淄博", "types": ["train_station", "transit_station", "point_of_interest", "establishment"], "short_name": "淄博"}, {"long_name": "张店区", "types": ["sublocality_level_1", "sublocality", "political"], "short_name": "张店区"}, {"long_name": "淄博", "types": ["locality", "political"], "short_name": "淄博"}, {"long_name": "China", "types": ["country", "political"], "short_name": "CN"}, {"long_name": "255000", "types": ["postal_code"], "short_name": "255000"}], "place_id": "ChIJwYGXqfuM6jURLuoAYRkFoHY", "formatted_address": "China, 淄博市张店区淄博 邮政编码: 255000", "types": ["train_station", "transit_station", "point_of_interest", "establishment"]}, {"geometry": {"location_type": "APPROXIMATE", "bounds": {"northeast": {"lat": 37.2826502, "lng": 118.5226919}, "southwest": {"lat": 35.9243265, "lng": 117.5502063}}, "viewport": {"northeast": {"lat": 36.95268069999999, "lng": 118.2609558}, "southwest": {"lat": 36.6941829, "lng": 117.8393555}}, "location": {"lat": 36.81348699999999, "lng": 118.054927}}, "address_components": [{"long_name": "Zibo", "types": ["locality", "political"], "short_name": "Zibo"}, {"long_name": "Shandong", "types": ["administrative_area_level_1", "political"], "short_name": "Shandong"}, {"long_name": "China", "types": ["country", "political"], "short_name": "CN"}], "place_id": "ChIJheTMXTyE6jURAtafTZj3vuA", "formatted_address": "Zibo, Shandong, China", "types": ["locality", "political"]}]}, {"status": "OK", "results": [{"geometry": {"location_type": "GEOMETRIC_CENTER", "bounds": {"northeast": {"lat": 33.9846648, "lng": -79.15291359999999}, "southwest": {"lat": 33.9824368, "lng": -79.1541912}}, "viewport": {"northeast": {"lat": 33.9848997802915, "lng": -79.1522034197085}, "southwest": {"lat": 33.9822018197085, "lng": -79.1549013802915}}, "location": {"lat": 33.9835818, "lng": -79.1534295}}, "address_components": [{"long_name": "Location", "types": ["route"], "short_name": "Location"}, {"long_name": "Aynor", "types": ["locality", "political"], "short_name": "Aynor"}, {"long_name": "Horry County", "types": ["administrative_area_level_2", "political"], "short_name": "Horry County"}, {"long_name": "South Carolina", "types": ["administrative_area_level_1", "political"], "short_name": "SC"}, {"long_name": "United States", "types": ["country", "political"], "short_name": "US"}, {"long_name": "29511", "types": ["postal_code"], "short_name": "29511"}], "place_id": "ChIJzfBkCwAJAIkRh6R_0uWFT0c", "formatted_address": "Location, Aynor, SC 29511, USA", "types": ["route"]}, {"geometry": {"location_type": "APPROXIMATE", "bounds": {"northeast": {"lat": -25.7361219, "lng": 28.179474}, "southwest": {"lat": -25.7476371, "lng": 28.172127}}, "viewport": {"northeast": {"lat": -25.7361219, "lng": 28.179474}, "southwest": {"lat": -25.7476371, "lng": 28.172127}}, "location": {"lat": -25.7394229, "lng": 28.1758982}}, "address_components": [{"long_name": "Asiatic Bazaar", "types": ["sublocality_level_1", "sublocality", "political"], "short_name": "Asiatic Bazaar"}, {"long_name": "Pretoria", "types": ["locality", "political"], "short_name": "Pretoria"}, {"long_name": "Tshwane", "types": ["administrative_area_level_3", "political"], "short_name": "Tshwane"}, {"long_name": "Pretoria", "types": ["administrative_area_level_2", "political"], "short_name": "Pretoria"}, {"long_name": "Gauteng", "types": ["administrative_area_level_1", "political"], "short_name": "GP"}, {"long_name": "South Africa", "types": ["country", "political"], "short_name": "ZA"}], "place_id": "ChIJxdKUdnZilR4RPt8vwZ_E1do", "formatted_address": "Asiatic Bazaar, Pretoria, South Africa", "types": ["sublocality_level_1", "sublocality", "political"]}]}, {"status": "OK", "results": [{"geometry": {"location_type": "APPROXIMATE", "bounds": {"northeast": {"lat": 37.5750522, "lng": 122.7100401}, "southwest": {"lat": 36.6796885, "lng": 121.1775585}}, "viewport": {"northeast": {"lat": 37.5940159, "lng": 122.2544861}, "southwest": {"lat": 37.3700555, "lng": 121.9104767}}, "location": {"lat": 37.513068, "lng": 122.12042}}, "address_components": [{"long_name": "Weihai", "types": ["locality", "political"], "short_name": "Weihai"}, {"long_name": "Shandong", "types": ["administrative_area_level_1", "political"], "short_name": "Shandong"}, {"long_name": "China", "types": ["country", "political"], "short_name": "CN"}], "place_id": "ChIJReSBoopomjURmhZT7n6st3E", "formatted_address": "Weihai, Shandong, China", "types": ["locality", "political"]}]}, {"status": "OK", "results": [{"geometry": {"location_type": "APPROXIMATE", "bounds": {"northeast": {"lat": 37.2972766, "lng": 120.0152098}, "southwest": {"lat": 35.709407, "lng": 118.1762846}}, "viewport": {"northeast": {"lat": 36.8493892, "lng": 119.3266296}, "southwest": {"lat": 36.6005524, "lng": 118.9242554}}, "location": {"lat": 36.706774, "lng": 119.161756}}, "address_components": [{"long_name": "Weifang", "types": ["locality", "political"], "short_name": "Weifang"}, {"long_name": "Shandong", "types": ["administrative_area_level_1", "political"], "short_name": "Shandong"}, {"long_name": "China", "types": ["country", "political"], "short_name": "CN"}], "place_id": "ChIJucTy2H8XlTURjUUy5ADfki0", "formatted_address": "Weifang, Shandong, China", "types": ["locality", "political"]}]}, {"status": "OK", "results": [{"geometry": {"location_type": "APPROXIMATE", "bounds": {"northeast": {"lat": 36.2066486, "lng": 119.2032387}, "southwest": {"lat": 34.3773522, "lng": 117.4186638}}, "viewport": {"northeast": {"lat": 35.2624406, "lng": 118.6536098}, "southwest": {"lat": 34.8427342, "lng": 118.0191708}}, "location": {"lat": 35.104672, "lng": 118.356448}}, "address_components": [{"long_name": "Linyi", "types": ["locality", "political"], "short_name": "Linyi"}, {"long_name": "Shandong", "types": ["administrative_area_level_1", "political"], "short_name": "Shandong"}, {"long_name": "China", "types": ["country", "political"], "short_name": "CN"}], "place_id": "ChIJyenY4ue3wDURNG4jIzOZlzw", "formatted_address": "Linyi, Shandong, China", "types": ["locality", "political"]}]}, {"status": "OK", "results": [{"geometry": {"location": {"lat": 34.781178, "lng": 117.3052}, "viewport": {"northeast": {"lat": 34.78252698029149, "lng": 117.3065489802915}, "southwest": {"lat": 34.77982901970849, "lng": 117.3038510197085}}, "location_type": "APPROXIMATE"}, "address_components": [{"long_name": "Zaozhuang Railway Station", "types": ["train_station", "transit_station", "point_of_interest", "establishment"], "short_name": "Zaozhuang Railway Station"}, {"long_name": "Qi Lian Shan Lu", "types": ["route"], "short_name": "Qi Lian Shan Lu"}, {"long_name": "Xuecheng Qu", "types": ["sublocality_level_1", "sublocality", "political"], "short_name": "Xuecheng Qu"}, {"long_name": "Zaozhuang Shi", "types": ["locality", "political"], "short_name": "Zaozhuang Shi"}, {"long_name": "Shandong Sheng", "types": ["administrative_area_level_1", "political"], "short_name": "Shandong Sheng"}, {"long_name": "China", "types": ["country", "political"], "short_name": "CN"}], "place_id": "ChIJV9RFDgWHxjUR7C1Lf6asM5M", "formatted_address": "Zaozhuang Railway Station, Qi Lian Shan Lu, Xuecheng Qu, Zaozhuang Shi, Shandong Sheng, China", "types": ["train_station", "transit_station", "point_of_interest", "establishment"]}, {"geometry": {"location_type": "APPROXIMATE", "bounds": {"northeast": {"lat": 35.3204797, "lng": 117.8324938}, "southwest": {"lat": 34.461258, "lng": 116.8111858}}, "viewport": {"northeast": {"lat": 34.9201609, "lng": 117.4891663}, "southwest": {"lat": 34.7071008, "lng": 117.1650696}}, "location": {"lat": 34.810488, "lng": 117.323725}}, "address_components": [{"long_name": "Zaozhuang", "types": ["locality", "political"], "short_name": "Zaozhuang"}, {"long_name": "Shandong", "types": ["administrative_area_level_1", "political"], "short_name": "Shandong"}, {"long_name": "China", "types": ["country", "political"], "short_name": "CN"}], "place_id": "ChIJP2JSyCOFxjURSLKtUM77OSk", "formatted_address": "Zaozhuang, Shandong, China", "types": ["locality", "political"]}]}, {"status": "OK", "results": [{"geometry": {"location_type": "APPROXIMATE", "bounds": {"northeast": {"lat": 37.5328858, "lng": 117.7473066}, "southwest": {"lat": 36.0311407, "lng": 116.2260656}}, "viewport": {"northeast": {"lat": 36.7988378, "lng": 117.3010254}, "southwest": {"lat": 36.4870049, "lng": 116.7572021}}, "location": {"lat": 36.651216, "lng": 117.12}}, "address_components": [{"long_name": "Jinan", "types": ["locality", "political"], "short_name": "Jinan"}, {"long_name": "Shandong", "types": ["administrative_area_level_1", "political"], "short_name": "Shandong"}, {"long_name": "China", "types": ["country", "political"], "short_name": "CN"}], "place_id": "ChIJE-qsHbkFwjURVEjOPZZQMGE", "formatted_address": "Jinan, Shandong, China", "types": ["locality", "political"]}]}, {"status": "OK", "results": [{"geometry": {"location_type": "APPROXIMATE", "bounds": {"northeast": {"lat": 34.313, "lng": 108.5467123}, "southwest": {"lat": 26.0458656, "lng": 97.34808160000001}}, "viewport": {"northeast": {"lat": 34.313, "lng": 108.5467123}, "southwest": {"lat": 26.0458656, "lng": 97.34808160000001}}, "location": {"lat": 30.651652, "lng": 104.075931}}, "address_components": [{"long_name": "Sichuan", "types": ["administrative_area_level_1", "political"], "short_name": "Sichuan"}, {"long_name": "China", "types": ["country", "political"], "short_name": "CN"}], "place_id": "ChIJs829aDPn5DYRuf6Zj898j94", "formatted_address": "Sichuan, China", "types": ["administrative_area_level_1", "political"]}]}, {"status": "OK", "results": [{"geometry": {"location": {"lat": 31.142515, "lng": 104.38187}, "viewport": {"northeast": {"lat": 31.1438639802915, "lng": 104.3832189802915}, "southwest": {"lat": 31.1411660197085, "lng": 104.3805210197085}}, "location_type": "APPROXIMATE"}, "address_components": [{"long_name": "德阳", "types": ["train_station", "transit_station", "point_of_interest", "establishment"], "short_name": "德阳"}, {"long_name": "旌阳区", "types": ["sublocality_level_1", "sublocality", "political"], "short_name": "旌阳区"}, {"long_name": "德阳", "types": ["locality", "political"], "short_name": "德阳"}, {"long_name": "China", "types": ["country", "political"], "short_name": "CN"}, {"long_name": "618000", "types": ["postal_code"], "short_name": "618000"}], "place_id": "ChIJ_05vqofJ8TYR7JB2n0097N0", "formatted_address": "China, 德阳市旌阳区德阳 邮政编码: 618000", "types": ["train_station", "transit_station", "point_of_interest", "establishment"]}, {"geometry": {"location_type": "APPROXIMATE", "bounds": {"northeast": {"lat": 31.698442, "lng": 105.1752535}, "southwest": {"lat": 30.5249855, "lng": 103.795433}}, "viewport": {"northeast": {"lat": 31.2620789, "lng": 104.5822906}, "southwest": {"lat": 30.9616617, "lng": 104.2307281}}, "location": {"lat": 31.126856, "lng": 104.397894}}, "address_components": [{"long_name": "Deyang", "types": ["locality", "political"], "short_name": "Deyang"}, {"long_name": "Sichuan", "types": ["administrative_area_level_1", "political"], "short_name": "Sichuan"}, {"long_name": "China", "types": ["country", "political"], "short_name": "CN"}], "place_id": "ChIJKUhNCjDG8TYRiMVXU9Wf52c", "formatted_address": "Deyang, Sichuan, China", "types": ["locality", "political"]}]}, {"status": "OK", "results": [{"geometry": {"location_type": "GEOMETRIC_CENTER", "bounds": {"northeast": {"lat": 33.9846648, "lng": -79.15291359999999}, "southwest": {"lat": 33.9824368, "lng": -79.1541912}}, "viewport": {"northeast": {"lat": 33.9848997802915, "lng": -79.1522034197085}, "southwest": {"lat": 33.9822018197085, "lng": -79.1549013802915}}, "location": {"lat": 33.9835818, "lng": -79.1534295}}, "address_components": [{"long_name": "Location", "types": ["route"], "short_name": "Location"}, {"long_name": "Aynor", "types": ["locality", "political"], "short_name": "Aynor"}, {"long_name": "Horry County", "types": ["administrative_area_level_2", "political"], "short_name": "Horry County"}, {"long_name": "South Carolina", "types": ["administrative_area_level_1", "political"], "short_name": "SC"}, {"long_name": "United States", "types": ["country", "political"], "short_name": "US"}, {"long_name": "29511", "types": ["postal_code"], "short_name": "29511"}], "place_id": "ChIJzfBkCwAJAIkRh6R_0uWFT0c", "formatted_address": "Location, Aynor, SC 29511, USA", "types": ["route"]}, {"geometry": {"location_type": "APPROXIMATE", "bounds": {"northeast": {"lat": -25.7361219, "lng": 28.179474}, "southwest": {"lat": -25.7476371, "lng": 28.172127}}, "viewport": {"northeast": {"lat": -25.7361219, "lng": 28.179474}, "southwest": {"lat": -25.7476371, "lng": 28.172127}}, "location": {"lat": -25.7394229, "lng": 28.1758982}}, "address_components": [{"long_name": "Asiatic Bazaar", "types": ["sublocality_level_1", "sublocality", "political"], "short_name": "Asiatic Bazaar"}, {"long_name": "Pretoria", "types": ["locality", "political"], "short_name": "Pretoria"}, {"long_name": "Tshwane", "types": ["administrative_area_level_3", "political"], "short_name": "Tshwane"}, {"long_name": "Pretoria", "types": ["administrative_area_level_2", "political"], "short_name": "Pretoria"}, {"long_name": "Gauteng", "types": ["administrative_area_level_1", "political"], "short_name": "GP"}, {"long_name": "South Africa", "types": ["country", "political"], "short_name": "ZA"}], "place_id": "ChIJxdKUdnZilR4RPt8vwZ_E1do", "formatted_address": "Asiatic Bazaar, Pretoria, South Africa", "types": ["sublocality_level_1", "sublocality", "political"]}]}, {"status": "OK", "results": [{"geometry": {"location": {"lat": 30.697455, "lng": 104.074005}, "viewport": {"northeast": {"lat": 30.6988039802915, "lng": 104.0753539802915}, "southwest": {"lat": 30.6961060197085, "lng": 104.0726560197085}}, "location_type": "APPROXIMATE"}, "address_components": [{"long_name": "Chengdu North Railway Station", "types": ["train_station", "transit_station", "point_of_interest", "establishment"], "short_name": "Chengdu North Railway Station"}, {"long_name": "Zhan Qian Lu", "types": ["route"], "short_name": "Zhan Qian Lu"}, {"long_name": "RenMin BeiLu", "types": ["neighborhood", "political"], "short_name": "RenMin BeiLu"}, {"long_name": "Jinniu Qu", "types": ["sublocality_level_1", "sublocality", "political"], "short_name": "Jinniu Qu"}, {"long_name": "Chengdu Shi", "types": ["locality", "political"], "short_name": "Chengdu Shi"}, {"long_name": "Sichuan Sheng", "types": ["administrative_area_level_1", "political"], "short_name": "Sichuan Sheng"}, {"long_name": "China", "types": ["country", "political"], "short_name": "CN"}, {"long_name": "610081", "types": ["postal_code"], "short_name": "610081"}], "place_id": "ChIJgxrQYura7zYRGuMj5QMwiGY", "formatted_address": "Chengdu North Railway Station, Zhan Qian Lu, RenMin BeiLu, Jinniu Qu, Chengdu Shi, Sichuan Sheng, China, 610081", "types": ["train_station", "transit_station", "point_of_interest", "establishment"]}, {"geometry": {"location_type": "APPROXIMATE", "bounds": {"northeast": {"lat": 31.43533459999999, "lng": 104.8927952}, "southwest": {"lat": 30.0942976, "lng": 102.992886}}, "viewport": {"northeast": {"lat": 30.8581695, "lng": 104.3261719}, "southwest": {"lat": 30.4588876, "lng": 103.8249207}}, "location": {"lat": 30.572269, "lng": 104.066541}}, "address_components": [{"long_name": "Chengdu", "types": ["locality", "political"], "short_name": "Chengdu"}, {"long_name": "Sichuan", "types": ["administrative_area_level_1", "political"], "short_name": "Sichuan"}, {"long_name": "China", "types": ["country", "political"], "short_name": "CN"}], "place_id": "ChIJIXdEACPF7zYRAg4kLs5Shrk", "formatted_address": "Chengdu, Sichuan, China", "types": ["locality", "political"]}]}, {"status": "OK", "results": [{"geometry": {"location_type": "APPROXIMATE", "bounds": {"northeast": {"lat": 35.1245136, "lng": 121.9627784}, "southwest": {"lat": 30.7578406, "lng": 116.3619604}}, "viewport": {"northeast": {"lat": 35.1245136, "lng": 121.9627784}, "southwest": {"lat": 30.7578406, "lng": 116.3619604}}, "location": {"lat": 32.061707, "lng": 118.763232}}, "address_components": [{"long_name": "Jiangsu", "types": ["administrative_area_level_1", "political"], "short_name": "Jiangsu"}, {"long_name": "China", "types": ["country", "political"], "short_name": "CN"}], "place_id": "ChIJRcJLMdoAtzURtVOFbLbqlI0", "formatted_address": "Jiangsu, China", "types": ["administrative_area_level_1", "political"]}]}, {"status": "OK", "results": [{"geometry": {"location": {"lat": 31.587945, "lng": 120.305793}, "viewport": {"northeast": {"lat": 31.5892939802915, "lng": 120.3071419802915}, "southwest": {"lat": 31.5865960197085, "lng": 120.3044440197085}}, "location_type": "APPROXIMATE"}, "address_components": [{"long_name": "Wuxi Railway Station", "types": ["train_station", "transit_station", "point_of_interest", "establishment"], "short_name": "Wuxi Railway Station"}, {"long_name": "Xing Yuan Bei Lu", "types": ["route"], "short_name": "Xing Yuan Bei Lu"}, {"long_name": "Chongan Qu", "types": ["sublocality_level_1", "sublocality", "political"], "short_name": "Chongan Qu"}, {"long_name": "Wuxi Shi", "types": ["locality", "political"], "short_name": "Wuxi Shi"}, {"long_name": "Jiangsu Sheng", "types": ["administrative_area_level_1", "political"], "short_name": "Jiangsu Sheng"}, {"long_name": "China", "types": ["country", "political"], "short_name": "CN"}, {"long_name": "214016", "types": ["postal_code"], "short_name": "214016"}], "place_id": "ChIJO_Iv9maOszURAX4pMOPX7fI", "formatted_address": "Wuxi Railway Station, Xing Yuan Bei Lu, Chongan Qu, Wuxi Shi, Jiangsu Sheng, China, 214123", "types": ["train_station", "transit_station", "point_of_interest", "establishment"]}, {"geometry": {"location_type": "APPROXIMATE", "bounds": {"northeast": {"lat": 31.963801, "lng": 120.6057595}, "southwest": {"lat": 31.1086475, "lng": 119.5196602}}, "viewport": {"northeast": {"lat": 31.703064, "lng": 120.484314}, "southwest": {"lat": 31.4374757, "lng": 120.1409912}}, "location": {"lat": 31.49117, "lng": 120.31191}}, "address_components": [{"long_name": "Wuxi", "types": ["locality", "political"], "short_name": "Wuxi"}, {"long_name": "Jiangsu", "types": ["administrative_area_level_1", "political"], "short_name": "Jiangsu"}, {"long_name": "China", "types": ["country", "political"], "short_name": "CN"}], "place_id": "ChIJpabgQ1iOszURJjX9xBftNtU", "formatted_address": "Wuxi, Jiangsu, China", "types": ["locality", "political"]}]}, {"status": "OK", "results": [{"geometry": {"location_type": "APPROXIMATE", "bounds": {"northeast": {"lat": 32.3189161, "lng": 119.9537242}, "southwest": {"lat": 31.625209, "lng": 118.9694489}}, "viewport": {"northeast": {"lat": 32.2913954, "lng": 119.6043563}, "southwest": {"lat": 32.059082, "lng": 119.3143773}}, "location": {"lat": 32.187849, "lng": 119.425836}}, "address_components": [{"long_name": "Zhenjiang", "types": ["locality", "political"], "short_name": "Zhenjiang"}, {"long_name": "Jiangsu", "types": ["administrative_area_level_1", "political"], "short_name": "Jiangsu"}, {"long_name": "China", "types": ["country", "political"], "short_name": "CN"}], "place_id": "ChIJo1QOp9gqtDURTC6ALFuAJz0", "formatted_address": "Zhenjiang, Jiangsu, China", "types": ["locality", "political"]}]}, {"status": "OK", "results": [{"geometry": {"location_type": "APPROXIMATE", "bounds": {"northeast": {"lat": 32.6143634, "lng": 119.2362425}, "southwest": {"lat": 31.2280977, "lng": 118.363373}}, "viewport": {"northeast": {"lat": 32.3940135, "lng": 119.050169}, "southwest": {"lat": 31.8045247, "lng": 118.4253323}}, "location": {"lat": 32.060255, "lng": 118.796877}}, "address_components": [{"long_name": "Nanjing", "types": ["locality", "political"], "short_name": "Nanjing"}, {"long_name": "Jiangsu", "types": ["administrative_area_level_1", "political"], "short_name": "Jiangsu"}, {"long_name": "China", "types": ["country", "political"], "short_name": "CN"}], "place_id": "ChIJg82NZpuMtTURBhvfeQu2-48", "formatted_address": "Nanjing, Jiangsu, China", "types": ["locality", "political"]}]}, {"status": "OK", "results": [{"geometry": {"location_type": "APPROXIMATE", "bounds": {"northeast": {"lat": 35.1245136, "lng": 119.8775709}, "southwest": {"lat": 33.9796025, "lng": 118.4053712}}, "viewport": {"northeast": {"lat": 34.7839637, "lng": 119.4831848}, "southwest": {"lat": 34.4087385, "lng": 118.9187622}}, "location": {"lat": 34.596653, "lng": 119.221611}}, "address_components": [{"long_name": "Lianyungang", "types": ["locality", "political"], "short_name": "Lianyungang"}, {"long_name": "Jiangsu", "types": ["administrative_area_level_1", "political"], "short_name": "Jiangsu"}, {"long_name": "China", "types": ["country", "political"], "short_name": "CN"}], "place_id": "ChIJH6nS1l_puDURPAf9uBmL-sg", "formatted_address": "Lianyungang, Jiangsu, China", "types": ["locality", "political"]}]}, {"status": "OK", "results": [{"geometry": {"location": {"lat": 31.329093, "lng": 120.610877}, "viewport": {"northeast": {"lat": 31.3304419802915, "lng": 120.6122259802915}, "southwest": {"lat": 31.3277440197085, "lng": 120.6095280197085}}, "location_type": "APPROXIMATE"}, "address_components": [{"long_name": "Suzhou Railway Station", "types": ["train_station", "transit_station", "point_of_interest", "establishment"], "short_name": "Suzhou Railway Station"}, {"long_name": "27", "types": ["street_number"], "short_name": "27"}, {"long_name": "Che Zhan Lu", "types": ["route"], "short_name": "Che Zhan Lu"}, {"long_name": "Gusu Qu", "types": ["sublocality_level_1", "sublocality", "political"], "short_name": "Gusu Qu"}, {"long_name": "Suzhou Shi", "types": ["locality", "political"], "short_name": "Suzhou Shi"}, {"long_name": "Jiangsu Sheng", "types": ["administrative_area_level_1", "political"], "short_name": "Jiangsu Sheng"}, {"long_name": "China", "types": ["country", "political"], "short_name": "CN"}, {"long_name": "215000", "types": ["postal_code"], "short_name": "215000"}], "place_id": "ChIJCVBXRTChszURcv4va_rqJ-U", "formatted_address": "Suzhou Railway Station, 27 Che Zhan Lu, Gusu Qu, Suzhou Shi, Jiangsu Sheng, China, 215000", "types": ["train_station", "transit_station", "point_of_interest", "establishment"]}, {"geometry": {"location_type": "APPROXIMATE", "bounds": {"northeast": {"lat": 32.0294592, "lng": 121.3364988}, "southwest": {"lat": 30.7578406, "lng": 119.9894592}}, "viewport": {"northeast": {"lat": 31.5230825, "lng": 120.9141541}, "southwest": {"lat": 31.1336138, "lng": 120.3744507}}, "location": {"lat": 31.298974, "lng": 120.585297}}, "address_components": [{"long_name": "Suzhou", "types": ["locality", "political"], "short_name": "Suzhou"}, {"long_name": "Jiangsu", "types": ["administrative_area_level_1", "political"], "short_name": "Jiangsu"}, {"long_name": "China", "types": ["country", "political"], "short_name": "CN"}], "place_id": "ChIJB17Sm9GgszURBGB2vYV_5SE", "formatted_address": "Suzhou, Jiangsu, China", "types": ["locality", "political"]}]}, {"status": "OK", "results": [{"geometry": {"location": {"lat": 31.789968, "lng": 119.96845}, "viewport": {"northeast": {"lat": 31.7913169802915, "lng": 119.9697989802915}, "southwest": {"lat": 31.7886190197085, "lng": 119.9671010197085}}, "location_type": "APPROXIMATE"}, "address_components": [{"long_name": "常州", "types": ["train_station", "transit_station", "point_of_interest", "establishment"], "short_name": "常州"}, {"long_name": "关河东路商圈", "types": ["neighborhood", "political"], "short_name": "关河东路商圈"}, {"long_name": "天宁区", "types": ["sublocality_level_1", "sublocality", "political"], "short_name": "天宁区"}, {"long_name": "常州", "types": ["locality", "political"], "short_name": "常州"}, {"long_name": "China", "types": ["country", "political"], "short_name": "CN"}, {"long_name": "213000", "types": ["postal_code"], "short_name": "213000"}], "place_id": "ChIJ47eqp6YStDUR2R3MMey31t0", "formatted_address": "China, 常州市天宁区关河东路商圈常州 邮政编码: 213000", "types": ["train_station", "transit_station", "point_of_interest", "establishment"]}, {"geometry": {"location_type": "APPROXIMATE", "bounds": {"northeast": {"lat": 32.0602019, "lng": 120.2011582}, "southwest": {"lat": 31.1525295, "lng": 119.1405392}}, "viewport": {"northeast": {"lat": 31.9878443, "lng": 120.1698303}, "southwest": {"lat": 31.6411341, "lng": 119.7193909}}, "location": {"lat": 31.811226, "lng": 119.974062}}, "address_components": [{"long_name": "Changzhou", "types": ["locality", "political"], "short_name": "Changzhou"}, {"long_name": "Jiangsu", "types": ["administrative_area_level_1", "political"], "short_name": "Jiangsu"}, {"long_name": "China", "types": ["country", "political"], "short_name": "CN"}], "place_id": "ChIJ855yDcoStDURODxvgUoktMA", "formatted_address": "Changzhou, Jiangsu, China", "types": ["locality", "political"]}]}, {"status": "OK", "results": [{"geometry": {"location_type": "GEOMETRIC_CENTER", "bounds": {"northeast": {"lat": 33.9846648, "lng": -79.15291359999999}, "southwest": {"lat": 33.9824368, "lng": -79.1541912}}, "viewport": {"northeast": {"lat": 33.9848997802915, "lng": -79.1522034197085}, "southwest": {"lat": 33.9822018197085, "lng": -79.1549013802915}}, "location": {"lat": 33.9835818, "lng": -79.1534295}}, "address_components": [{"long_name": "Location", "types": ["route"], "short_name": "Location"}, {"long_name": "Aynor", "types": ["locality", "political"], "short_name": "Aynor"}, {"long_name": "Horry County", "types": ["administrative_area_level_2", "political"], "short_name": "Horry County"}, {"long_name": "South Carolina", "types": ["administrative_area_level_1", "political"], "short_name": "SC"}, {"long_name": "United States", "types": ["country", "political"], "short_name": "US"}, {"long_name": "29511", "types": ["postal_code"], "short_name": "29511"}], "place_id": "ChIJzfBkCwAJAIkRh6R_0uWFT0c", "formatted_address": "Location, Aynor, SC 29511, USA", "types": ["route"]}, {"geometry": {"location_type": "APPROXIMATE", "bounds": {"northeast": {"lat": -25.7361219, "lng": 28.179474}, "southwest": {"lat": -25.7476371, "lng": 28.172127}}, "viewport": {"northeast": {"lat": -25.7361219, "lng": 28.179474}, "southwest": {"lat": -25.7476371, "lng": 28.172127}}, "location": {"lat": -25.7394229, "lng": 28.1758982}}, "address_components": [{"long_name": "Asiatic Bazaar", "types": ["sublocality_level_1", "sublocality", "political"], "short_name": "Asiatic Bazaar"}, {"long_name": "Pretoria", "types": ["locality", "political"], "short_name": "Pretoria"}, {"long_name": "Tshwane", "types": ["administrative_area_level_3", "political"], "short_name": "Tshwane"}, {"long_name": "Pretoria", "types": ["administrative_area_level_2", "political"], "short_name": "Pretoria"}, {"long_name": "Gauteng", "types": ["administrative_area_level_1", "political"], "short_name": "GP"}, {"long_name": "South Africa", "types": ["country", "political"], "short_name": "ZA"}], "place_id": "ChIJxdKUdnZilR4RPt8vwZ_E1do", "formatted_address": "Asiatic Bazaar, Pretoria, South Africa", "types": ["sublocality_level_1", "sublocality", "political"]}]}, {"status": "OK", "results": [{"geometry": {"location_type": "APPROXIMATE", "bounds": {"northeast": {"lat": 33.415823, "lng": 119.9063218}, "southwest": {"lat": 32.2249897, "lng": 119.0164543}}, "viewport": {"northeast": {"lat": 32.5664996, "lng": 119.7614586}, "southwest": {"lat": 32.2684103, "lng": 119.2173672}}, "location": {"lat": 32.39421, "lng": 119.412966}}, "address_components": [{"long_name": "Yangzhou", "types": ["locality", "political"], "short_name": "Yangzhou"}, {"long_name": "Jiangsu", "types": ["administrative_area_level_1", "political"], "short_name": "Jiangsu"}, {"long_name": "China", "types": ["country", "political"], "short_name": "CN"}], "place_id": "ChIJI2wyEV59tjUR-Fq08n2uqdI", "formatted_address": "Yangzhou, Jiangsu, China", "types": ["locality", "political"]}]}, {"status": "OK", "results": [{"geometry": {"location_type": "APPROXIMATE", "bounds": {"northeast": {"lat": 49.1823419, "lng": 96.38619419999999}, "southwest": {"lat": 34.334503, "lng": 73.502355}}, "viewport": {"northeast": {"lat": 49.1823419, "lng": 96.38619419999999}, "southwest": {"lat": 34.334503, "lng": 73.502355}}, "location": {"lat": 43.793026, "lng": 87.627704}}, "address_components": [{"long_name": "Xinjiang", "types": ["administrative_area_level_1", "political"], "short_name": "Xinjiang"}, {"long_name": "China", "types": ["country", "political"], "short_name": "CN"}], "place_id": "ChIJq017_YwABjgRoQdnNuwWQag", "formatted_address": "Xinjiang, China", "types": ["administrative_area_level_1", "political"]}]}, {"status": "OK", "results": [{"geometry": {"location_type": "GEOMETRIC_CENTER", "bounds": {"northeast": {"lat": 33.9846648, "lng": -79.15291359999999}, "southwest": {"lat": 33.9824368, "lng": -79.1541912}}, "viewport": {"northeast": {"lat": 33.9848997802915, "lng": -79.1522034197085}, "southwest": {"lat": 33.9822018197085, "lng": -79.1549013802915}}, "location": {"lat": 33.9835818, "lng": -79.1534295}}, "address_components": [{"long_name": "Location", "types": ["route"], "short_name": "Location"}, {"long_name": "Aynor", "types": ["locality", "political"], "short_name": "Aynor"}, {"long_name": "Horry County", "types": ["administrative_area_level_2", "political"], "short_name": "Horry County"}, {"long_name": "South Carolina", "types": ["administrative_area_level_1", "political"], "short_name": "SC"}, {"long_name": "United States", "types": ["country", "political"], "short_name": "US"}, {"long_name": "29511", "types": ["postal_code"], "short_name": "29511"}], "place_id": "ChIJzfBkCwAJAIkRh6R_0uWFT0c", "formatted_address": "Location, Aynor, SC 29511, USA", "types": ["route"]}, {"geometry": {"location_type": "APPROXIMATE", "bounds": {"northeast": {"lat": -25.7361219, "lng": 28.179474}, "southwest": {"lat": -25.7476371, "lng": 28.172127}}, "viewport": {"northeast": {"lat": -25.7361219, "lng": 28.179474}, "southwest": {"lat": -25.7476371, "lng": 28.172127}}, "location": {"lat": -25.7394229, "lng": 28.1758982}}, "address_components": [{"long_name": "Asiatic Bazaar", "types": ["sublocality_level_1", "sublocality", "political"], "short_name": "Asiatic Bazaar"}, {"long_name": "Pretoria", "types": ["locality", "political"], "short_name": "Pretoria"}, {"long_name": "Tshwane", "types": ["administrative_area_level_3", "political"], "short_name": "Tshwane"}, {"long_name": "Pretoria", "types": ["administrative_area_level_2", "political"], "short_name": "Pretoria"}, {"long_name": "Gauteng", "types": ["administrative_area_level_1", "political"], "short_name": "GP"}, {"long_name": "South Africa", "types": ["country", "political"], "short_name": "ZA"}], "place_id": "ChIJxdKUdnZilR4RPt8vwZ_E1do", "formatted_address": "Asiatic Bazaar, Pretoria, South Africa", "types": ["sublocality_level_1", "sublocality", "political"]}]}, {"status": "OK", "results": [{"geometry": {"location": {"lat": 43.764793, "lng": 87.582779}, "viewport": {"northeast": {"lat": 43.76614198029149, "lng": 87.58412798029151}, "southwest": {"lat": 43.76344401970849, "lng": 87.5814300197085}}, "location_type": "APPROXIMATE"}, "address_components": [{"long_name": "乌鲁木齐", "types": ["train_station", "transit_station", "point_of_interest", "establishment"], "short_name": "乌鲁木齐"}, {"long_name": "沙依巴克区", "types": ["sublocality_level_1", "sublocality", "political"], "short_name": "沙依巴克区"}, {"long_name": "乌鲁木齐", "types": ["locality", "political"], "short_name": "乌鲁木齐"}, {"long_name": "China", "types": ["country", "political"], "short_name": "CN"}, {"long_name": "830006", "types": ["postal_code"], "short_name": "830006"}], "place_id": "ChIJbW6kcir-BTgR4tYRW5tCNbg", "formatted_address": "China, 乌鲁木齐市沙依巴克区乌鲁木齐 邮政编码: 830006", "types": ["train_station", "transit_station", "point_of_interest", "establishment"]}, {"geometry": {"location_type": "APPROXIMATE", "bounds": {"northeast": {"lat": 45.0019711, "lng": 88.9747153}, "southwest": {"lat": 42.8232526, "lng": 86.7978906}}, "viewport": {"northeast": {"lat": 43.9285054, "lng": 87.7292633}, "southwest": {"lat": 43.71492, "lng": 87.3962402}}, "location": {"lat": 43.825592, "lng": 87.61684799999999}}, "address_components": [{"long_name": "Urumqi", "types": ["locality", "political"], "short_name": "Urumqi"}, {"long_name": "Xinjiang", "types": ["administrative_area_level_1", "political"], "short_name": "Xinjiang"}, {"long_name": "China", "types": ["country", "political"], "short_name": "CN"}], "place_id": "ChIJq017_YwABjgRinB6rOtSWao", "formatted_address": "Urumqi, Xinjiang, China", "types": ["locality", "political"]}]}, {"status": "OK", "results": [{"geometry": {"location_type": "APPROXIMATE", "bounds": {"northeast": {"lat": 28.3129013, "lng": 120.7270943}, "southwest": {"lat": 23.528783, "lng": 115.8522901}}, "viewport": {"northeast": {"lat": 28.3129013, "lng": 120.7270943}, "southwest": {"lat": 23.528783, "lng": 115.8522901}}, "location": {"lat": 26.10078, "lng": 119.295144}}, "address_components": [{"long_name": "Fujian", "types": ["administrative_area_level_1", "political"], "short_name": "Fujian"}, {"long_name": "China", "types": ["country", "political"], "short_name": "CN"}], "place_id": "ChIJ2_lEcNNUFTQR6FDb5LQ07k4", "formatted_address": "Fujian, China", "types": ["administrative_area_level_1", "political"]}]}, {"status": "OK", "results": [{"geometry": {"location": {"lat": 26.113592, "lng": 119.319876}, "viewport": {"northeast": {"lat": 26.1149409802915, "lng": 119.3212249802915}, "southwest": {"lat": 26.1122430197085, "lng": 119.3185270197085}}, "location_type": "APPROXIMATE"}, "address_components": [{"long_name": "Fuzhou Railway Station", "types": ["train_station", "transit_station", "point_of_interest", "establishment"], "short_name": "Fuzhou Railway Station"}, {"long_name": "Zhan Dong Lu", "types": ["route"], "short_name": "Zhan Dong Lu"}, {"long_name": "FuZhou HuoCheZhan ShangQuan", "types": ["neighborhood", "political"], "short_name": "FuZhou HuoCheZhan ShangQuan"}, {"long_name": "Jinan Qu", "types": ["sublocality_level_1", "sublocality", "political"], "short_name": "Jinan Qu"}, {"long_name": "Fuzhou Shi", "types": ["locality", "political"], "short_name": "Fuzhou Shi"}, {"long_name": "Fujian Sheng", "types": ["administrative_area_level_1", "political"], "short_name": "Fujian Sheng"}, {"long_name": "China", "types": ["country", "political"], "short_name": "CN"}, {"long_name": "350000", "types": ["postal_code"], "short_name": "350000"}], "place_id": "ChIJ3WxQd6FWQDQRFCH9nj8GSAg", "formatted_address": "Fuzhou Railway Station, Zhan Dong Lu, FuZhou HuoCheZhan ShangQuan, Jinan Qu, Fuzhou Shi, Fujian Sheng, China, 350000", "types": ["train_station", "transit_station", "point_of_interest", "establishment"]}, {"geometry": {"location_type": "APPROXIMATE", "bounds": {"northeast": {"lat": 26.6343779, "lng": 120.0908855}, "southwest": {"lat": 25.2501033, "lng": 118.3820906}}, "viewport": {"northeast": {"lat": 26.1824709, "lng": 119.5044708}, "southwest": {"lat": 25.9178492, "lng": 119.132309}}, "location": {"lat": 26.074508, "lng": 119.296494}}, "address_components": [{"long_name": "Fuzhou", "types": ["locality", "political"], "short_name": "Fuzhou"}, {"long_name": "Fujian", "types": ["administrative_area_level_1", "political"], "short_name": "Fujian"}, {"long_name": "China", "types": ["country", "political"], "short_name": "CN"}], "place_id": "ChIJQZ8yJz5RQDQRiIspSgmF8m4", "formatted_address": "Fuzhou, Fujian, China", "types": ["locality", "political"]}]}, {"status": "OK", "results": [{"geometry": {"location_type": "APPROXIMATE", "bounds": {"northeast": {"lat": 24.9027925, "lng": 118.414371}, "southwest": {"lat": 24.4214498, "lng": 117.8860125}}, "viewport": {"northeast": {"lat": 24.5801199, "lng": 118.243103}, "southwest": {"lat": 24.3782754, "lng": 117.9753113}}, "location": {"lat": 24.479834, "lng": 118.089425}}, "address_components": [{"long_name": "Xiamen", "types": ["locality", "political"], "short_name": "Xiamen"}, {"long_name": "Fujian", "types": ["administrative_area_level_1", "political"], "short_name": "Fujian"}, {"long_name": "China", "types": ["country", "political"], "short_name": "CN"}], "place_id": "ChIJJ-u_5XmDFDQRVtBolgpnoCg", "formatted_address": "Xiamen, Fujian, China", "types": ["locality", "political"]}]}, {"status": "OK", "results": [{"geometry": {"location_type": "GEOMETRIC_CENTER", "bounds": {"northeast": {"lat": 33.9846648, "lng": -79.15291359999999}, "southwest": {"lat": 33.9824368, "lng": -79.1541912}}, "viewport": {"northeast": {"lat": 33.9848997802915, "lng": -79.1522034197085}, "southwest": {"lat": 33.9822018197085, "lng": -79.1549013802915}}, "location": {"lat": 33.9835818, "lng": -79.1534295}}, "address_components": [{"long_name": "Location", "types": ["route"], "short_name": "Location"}, {"long_name": "Aynor", "types": ["locality", "political"], "short_name": "Aynor"}, {"long_name": "Horry County", "types": ["administrative_area_level_2", "political"], "short_name": "Horry County"}, {"long_name": "South Carolina", "types": ["administrative_area_level_1", "political"], "short_name": "SC"}, {"long_name": "United States", "types": ["country", "political"], "short_name": "US"}, {"long_name": "29511", "types": ["postal_code"], "short_name": "29511"}], "place_id": "ChIJzfBkCwAJAIkRh6R_0uWFT0c", "formatted_address": "Location, Aynor, SC 29511, USA", "types": ["route"]}, {"geometry": {"location_type": "APPROXIMATE", "bounds": {"northeast": {"lat": -25.7361219, "lng": 28.179474}, "southwest": {"lat": -25.7476371, "lng": 28.172127}}, "viewport": {"northeast": {"lat": -25.7361219, "lng": 28.179474}, "southwest": {"lat": -25.7476371, "lng": 28.172127}}, "location": {"lat": -25.7394229, "lng": 28.1758982}}, "address_components": [{"long_name": "Asiatic Bazaar", "types": ["sublocality_level_1", "sublocality", "political"], "short_name": "Asiatic Bazaar"}, {"long_name": "Pretoria", "types": ["locality", "political"], "short_name": "Pretoria"}, {"long_name": "Tshwane", "types": ["administrative_area_level_3", "political"], "short_name": "Tshwane"}, {"long_name": "Pretoria", "types": ["administrative_area_level_2", "political"], "short_name": "Pretoria"}, {"long_name": "Gauteng", "types": ["administrative_area_level_1", "political"], "short_name": "GP"}, {"long_name": "South Africa", "types": ["country", "political"], "short_name": "ZA"}], "place_id": "ChIJxdKUdnZilR4RPt8vwZ_E1do", "formatted_address": "Asiatic Bazaar, Pretoria, South Africa", "types": ["sublocality_level_1", "sublocality", "political"]}]}, {"status": "OK", "results": [{"geometry": {"location": {"lat": 25.351677, "lng": 119.062678}, "viewport": {"northeast": {"lat": 25.3530259802915, "lng": 119.0640269802915}, "southwest": {"lat": 25.3503280197085, "lng": 119.0613290197085}}, "location_type": "APPROXIMATE"}, "address_components": [{"long_name": "莆田", "types": ["train_station", "transit_station", "point_of_interest", "establishment"], "short_name": "莆田"}, {"long_name": "秀屿区", "types": ["sublocality_level_1", "sublocality", "political"], "short_name": "秀屿区"}, {"long_name": "莆田", "types": ["locality", "political"], "short_name": "莆田"}, {"long_name": "China", "types": ["country", "political"], "short_name": "CN"}], "place_id": "ChIJKwZmzcOXajQRlGgt-5GbTFk", "formatted_address": "China, 莆田市秀屿区莆田", "types": ["train_station", "transit_station", "point_of_interest", "establishment"]}, {"geometry": {"location_type": "APPROXIMATE", "bounds": {"northeast": {"lat": 25.7602877, "lng": 119.6475839}, "southwest": {"lat": 24.9858157, "lng": 118.4598971}}, "viewport": {"northeast": {"lat": 25.5518399, "lng": 119.1824341}, "southwest": {"lat": 25.2814724, "lng": 118.8514709}}, "location": {"lat": 25.454085, "lng": 119.007777}}, "address_components": [{"long_name": "Putian", "types": ["locality", "political"], "short_name": "Putian"}, {"long_name": "Fujian", "types": ["administrative_area_level_1", "political"], "short_name": "Fujian"}, {"long_name": "China", "types": ["country", "political"], "short_name": "CN"}], "place_id": "ChIJPeEta_yXajQRykv1DDs-YpM", "formatted_address": "Putian, Fujian, China", "types": ["locality", "political"]}]}, {"status": "OK", "results": [{"geometry": {"location_type": "APPROXIMATE", "bounds": {"northeast": {"lat": 31.1787821, "lng": 122.9494378}, "southwest": {"lat": 27.041518, "lng": 118.028279}}, "viewport": {"northeast": {"lat": 31.1787821, "lng": 122.9494378}, "southwest": {"lat": 27.0415589, "lng": 118.028279}}, "location": {"lat": 30.267443, "lng": 120.152792}}, "address_components": [{"long_name": "Zhejiang", "types": ["administrative_area_level_1", "political"], "short_name": "Zhejiang"}, {"long_name": "China", "types": ["country", "political"], "short_name": "CN"}], "place_id": "ChIJv8wKpTQSSTQRt3wYNsVx74E", "formatted_address": "Zhejiang, China", "types": ["administrative_area_level_1", "political"]}]}, {"status": "OK", "results": [{"geometry": {"location": {"lat": 29.863195, "lng": 121.535865}, "viewport": {"northeast": {"lat": 29.8645439802915, "lng": 121.5372139802915}, "southwest": {"lat": 29.8618460197085, "lng": 121.5345160197085}}, "location_type": "APPROXIMATE"}, "address_components": [{"long_name": "宁波", "types": ["train_station", "transit_station", "point_of_interest", "establishment"], "short_name": "宁波"}, {"long_name": "海曙区", "types": ["sublocality_level_1", "sublocality", "political"], "short_name": "海曙区"}, {"long_name": "宁波", "types": ["locality", "political"], "short_name": "宁波"}, {"long_name": "China", "types": ["country", "political"], "short_name": "CN"}, {"long_name": "315010", "types": ["postal_code"], "short_name": "315010"}], "place_id": "ChIJV_yzNFZ7TTQRJWaWhCUB8Kk", "formatted_address": "China, 宁波市海曙区宁波 邮政编码: 315000", "types": ["train_station", "transit_station", "point_of_interest", "establishment"]}, {"geometry": {"location_type": "APPROXIMATE", "bounds": {"northeast": {"lat": 30.3669427, "lng": 122.2788319}, "southwest": {"lat": 28.853529, "lng": 120.9212132}}, "viewport": {"northeast": {"lat": 30.0543752, "lng": 121.8054199}, "southwest": {"lat": 29.68518539999999, "lng": 121.338501}}, "location": {"lat": 29.868336, "lng": 121.54399}}, "address_components": [{"long_name": "Ningbo", "types": ["locality", "political"], "short_name": "Ningbo"}, {"long_name": "Zhejiang", "types": ["administrative_area_level_1", "political"], "short_name": "Zhejiang"}, {"long_name": "China", "types": ["country", "political"], "short_name": "CN"}], "place_id": "ChIJ91gIY1RjTTQRc_HMRvgjh5Q", "formatted_address": "Ningbo, Zhejiang, China", "types": ["locality", "political"]}]}, {"status": "OK", "results": [{"geometry": {"location": {"lat": 27.980497, "lng": 120.685056}, "viewport": {"northeast": {"lat": 27.9818459802915, "lng": 120.6864049802915}, "southwest": {"lat": 27.9791480197085, "lng": 120.6837070197085}}, "location_type": "APPROXIMATE"}, "address_components": [{"long_name": "Wenzhou Railway Station", "types": ["train_station", "transit_station", "point_of_interest", "establishment"], "short_name": "Wenzhou Railway Station"}, {"long_name": "Wen Zhou Da Dao", "types": ["route"], "short_name": "Wen Zhou Da Dao"}, {"long_name": "Lucheng Qu", "types": ["sublocality_level_1", "sublocality", "political"], "short_name": "Lucheng Qu"}, {"long_name": "Wenzhou Shi", "types": ["locality", "political"], "short_name": "Wenzhou Shi"}, {"long_name": "Zhejiang Sheng", "types": ["administrative_area_level_1", "political"], "short_name": "Zhejiang Sheng"}, {"long_name": "China", "types": ["country", "political"], "short_name": "CN"}, {"long_name": "325088", "types": ["postal_code"], "short_name": "325088"}], "place_id": "ChIJ0TRB72hjTzQRSHUUu1XzGiQ", "formatted_address": "Wenzhou Railway Station, Wen Zhou Da Dao, Lucheng Qu, Wenzhou Shi, Zhejiang Sheng, China, 325000", "types": ["train_station", "transit_station", "point_of_interest", "establishment"]}, {"geometry": {"location_type": "APPROXIMATE", "bounds": {"northeast": {"lat": 28.6117602, "lng": 121.2727636}, "southwest": {"lat": 27.041518, "lng": 119.6253209}}, "viewport": {"northeast": {"lat": 28.1288977, "lng": 120.903511}, "southwest": {"lat": 27.8533817, "lng": 120.463897}}, "location": {"lat": 27.994267, "lng": 120.699367}}, "address_components": [{"long_name": "Wenzhou", "types": ["locality", "political"], "short_name": "Wenzhou"}, {"long_name": "Zhejiang", "types": ["administrative_area_level_1", "political"], "short_name": "Zhejiang"}, {"long_name": "China", "types": ["country", "political"], "short_name": "CN"}], "place_id": "ChIJsbCLCTDyRTQRHFq0WBMcNbI", "formatted_address": "Wenzhou, Zhejiang, China", "types": ["locality", "political"]}]}, {"status": "OK", "results": [{"geometry": {"location_type": "APPROXIMATE", "bounds": {"northeast": {"lat": 29.340145, "lng": 121.944946}, "southwest": {"lat": 28.0128314, "lng": 120.2899815}}, "viewport": {"northeast": {"lat": 28.84664649999999, "lng": 121.6584778}, "southwest": {"lat": 28.4754515, "lng": 121.1723328}}, "location": {"lat": 28.65638599999999, "lng": 121.420757}}, "address_components": [{"long_name": "Taizhou", "types": ["locality", "political"], "short_name": "Taizhou"}, {"long_name": "Zhejiang", "types": ["administrative_area_level_1", "political"], "short_name": "Zhejiang"}, {"long_name": "China", "types": ["country", "political"], "short_name": "CN"}], "place_id": "ChIJg-ESJ34cTjQRBWh8EuAIeEI", "formatted_address": "Taizhou, Zhejiang, China", "types": ["locality", "political"]}]}, {"status": "OK", "results": [{"geometry": {"location_type": "GEOMETRIC_CENTER", "bounds": {"northeast": {"lat": 33.9846648, "lng": -79.15291359999999}, "southwest": {"lat": 33.9824368, "lng": -79.1541912}}, "viewport": {"northeast": {"lat": 33.9848997802915, "lng": -79.1522034197085}, "southwest": {"lat": 33.9822018197085, "lng": -79.1549013802915}}, "location": {"lat": 33.9835818, "lng": -79.1534295}}, "address_components": [{"long_name": "Location", "types": ["route"], "short_name": "Location"}, {"long_name": "Aynor", "types": ["locality", "political"], "short_name": "Aynor"}, {"long_name": "Horry County", "types": ["administrative_area_level_2", "political"], "short_name": "Horry County"}, {"long_name": "South Carolina", "types": ["administrative_area_level_1", "political"], "short_name": "SC"}, {"long_name": "United States", "types": ["country", "political"], "short_name": "US"}, {"long_name": "29511", "types": ["postal_code"], "short_name": "29511"}], "place_id": "ChIJzfBkCwAJAIkRh6R_0uWFT0c", "formatted_address": "Location, Aynor, SC 29511, USA", "types": ["route"]}, {"geometry": {"location_type": "APPROXIMATE", "bounds": {"northeast": {"lat": -25.7361219, "lng": 28.179474}, "southwest": {"lat": -25.7476371, "lng": 28.172127}}, "viewport": {"northeast": {"lat": -25.7361219, "lng": 28.179474}, "southwest": {"lat": -25.7476371, "lng": 28.172127}}, "location": {"lat": -25.7394229, "lng": 28.1758982}}, "address_components": [{"long_name": "Asiatic Bazaar", "types": ["sublocality_level_1", "sublocality", "political"], "short_name": "Asiatic Bazaar"}, {"long_name": "Pretoria", "types": ["locality", "political"], "short_name": "Pretoria"}, {"long_name": "Tshwane", "types": ["administrative_area_level_3", "political"], "short_name": "Tshwane"}, {"long_name": "Pretoria", "types": ["administrative_area_level_2", "political"], "short_name": "Pretoria"}, {"long_name": "Gauteng", "types": ["administrative_area_level_1", "political"], "short_name": "GP"}, {"long_name": "South Africa", "types": ["country", "political"], "short_name": "ZA"}], "place_id": "ChIJxdKUdnZilR4RPt8vwZ_E1do", "formatted_address": "Asiatic Bazaar, Pretoria, South Africa", "types": ["sublocality_level_1", "sublocality", "political"]}]}, {"status": "OK", "results": [{"geometry": {"location_type": "APPROXIMATE", "bounds": {"northeast": {"lat": 30.5665162, "lng": 120.7058943}, "southwest": {"lat": 29.1887571, "lng": 118.3449335}}, "viewport": {"northeast": {"lat": 30.4743515, "lng": 120.4307556}, "southwest": {"lat": 30.0484295, "lng": 119.9130249}}, "location": {"lat": 30.274085, "lng": 120.15507}}, "address_components": [{"long_name": "Hangzhou", "types": ["locality", "political"], "short_name": "Hangzhou"}, {"long_name": "Zhejiang", "types": ["administrative_area_level_1", "political"], "short_name": "Zhejiang"}, {"long_name": "China", "types": ["country", "political"], "short_name": "CN"}], "place_id": "ChIJmaqaQym2SzQROuhNgoPRv6c", "formatted_address": "Hangzhou, Zhejiang, China", "types": ["locality", "political"]}]}, {"status": "OK", "results": [{"geometry": {"location_type": "APPROXIMATE", "bounds": {"northeast": {"lat": 29.6822529, "lng": 120.7836075}, "southwest": {"lat": 28.5236786, "lng": 119.2287025}}, "viewport": {"northeast": {"lat": 29.169138, "lng": 119.7682178}, "southwest": {"lat": 28.9855063, "lng": 119.5281601}}, "location": {"lat": 29.079059, "lng": 119.647445}}, "address_components": [{"long_name": "Jinhua", "types": ["locality", "political"], "short_name": "Jinhua"}, {"long_name": "Zhejiang", "types": ["administrative_area_level_1", "political"], "short_name": "Zhejiang"}, {"long_name": "China", "types": ["country", "political"], "short_name": "CN"}], "place_id": "ChIJv8wKpTQSSTQRYT_F7ERhMlM", "formatted_address": "Jinhua, Zhejiang, China", "types": ["locality", "political"]}]}, {"status": "OK", "results": [{"geometry": {"location": {"lat": 35.86724299999999, "lng": 140.077792}, "viewport": {"northeast": {"lat": 35.8685919802915, "lng": 140.0791409802915}, "southwest": {"lat": 35.8658940197085, "lng": 140.0764430197085}}, "location_type": "APPROXIMATE"}, "address_components": [{"long_name": "Kohoku Station", "types": ["train_station", "transit_station", "point_of_interest", "establishment"], "short_name": "Kohoku Station"}, {"long_name": "Nakazato", "types": ["sublocality_level_1", "sublocality", "political"], "short_name": "Nakazato"}, {"long_name": "Abiko", "types": ["locality", "political"], "short_name": "Abiko"}, {"long_name": "Chiba Prefecture", "types": ["administrative_area_level_1", "political"], "short_name": "Chiba Prefecture"}, {"long_name": "Japan", "types": ["country", "political"], "short_name": "JP"}, {"long_name": "270-1122", "types": ["postal_code"], "short_name": "270-1122"}], "place_id": "ChIJc5kE-MB5ImAR9QLjle2EQ-M", "formatted_address": "Kohoku Station, Nakazato, Abiko, Chiba Prefecture 270-1122, Japan", "types": ["train_station", "transit_station", "point_of_interest", "establishment"]}, {"geometry": {"location_type": "APPROXIMATE", "bounds": {"northeast": {"lat": 33.2756161, "lng": 116.1345773}, "southwest": {"lat": 29.0294884, "lng": 108.3669646}}, "viewport": {"northeast": {"lat": 33.2756161, "lng": 116.1345773}, "southwest": {"lat": 29.0294884, "lng": 108.3669646}}, "location": {"lat": 30.546498, "lng": 114.341862}}, "address_components": [{"long_name": "Hubei", "types": ["administrative_area_level_1", "political"], "short_name": "Hubei"}, {"long_name": "China", "types": ["country", "political"], "short_name": "CN"}], "place_id": "ChIJb_KF3fiuLjQRPpKqljdJeeU", "formatted_address": "Hubei, China", "types": ["administrative_area_level_1", "political"]}]}, {"status": "OK", "results": [{"geometry": {"location_type": "APPROXIMATE", "bounds": {"northeast": {"lat": 30.291449, "lng": 114.9692346}, "southwest": {"lat": 29.0294884, "lng": 113.5383069}}, "viewport": {"northeast": {"lat": 29.9447212, "lng": 114.469986}, "southwest": {"lat": 29.713613, "lng": 114.1788483}}, "location": {"lat": 29.841443, "lng": 114.322492}}, "address_components": [{"long_name": "Xianning", "types": ["locality", "political"], "short_name": "Xianning"}, {"long_name": "Hubei", "types": ["administrative_area_level_1", "political"], "short_name": "Hubei"}, {"long_name": "China", "types": ["country", "political"], "short_name": "CN"}], "place_id": "ChIJvWQ-ZFkuLzQRK4JNBCjpgqA", "formatted_address": "Xianning, Hubei, China", "types": ["locality", "political"]}]}, {"status": "OK", "results": [{"geometry": {"location": {"lat": 31.72142299999999, "lng": 113.417843}, "viewport": {"northeast": {"lat": 31.72277198029149, "lng": 113.4191919802915}, "southwest": {"lat": 31.7200740197085, "lng": 113.4164940197085}}, "location_type": "APPROXIMATE"}, "address_components": [{"long_name": "Suizhou Railway Station", "types": ["train_station", "transit_station", "point_of_interest", "establishment"], "short_name": "Suizhou Railway Station"}, {"long_name": "Zengdou", "types": ["sublocality_level_1", "sublocality", "political"], "short_name": "Zengdou"}, {"long_name": "Suizhou", "types": ["locality", "political"], "short_name": "Suizhou"}, {"long_name": "Hubei", "types": ["administrative_area_level_1", "political"], "short_name": "Hubei"}, {"long_name": "China", "types": ["country", "political"], "short_name": "CN"}], "place_id": "ChIJjau6488CKzQRS3CbPy1tYSU", "formatted_address": "Suizhou Railway Station, Zengdou, Suizhou, Hubei, China", "types": ["train_station", "transit_station", "point_of_interest", "establishment"]}, {"geometry": {"location_type": "APPROXIMATE", "bounds": {"northeast": {"lat": 32.43198810000001, "lng": 114.1286407}, "southwest": {"lat": 31.3262171, "lng": 112.7294255}}, "viewport": {"northeast": {"lat": 31.8010386, "lng": 113.5100555}, "southwest": {"lat": 31.6286864, "lng": 113.2553101}}, "location": {"lat": 31.690216, "lng": 113.382458}}, "address_components": [{"long_name": "Suizhou", "types": ["locality", "political"], "short_name": "Suizhou"}, {"long_name": "Hubei", "types": ["administrative_area_level_1", "political"], "short_name": "Hubei"}, {"long_name": "China", "types": ["country", "political"], "short_name": "CN"}], "place_id": "ChIJT1DG9W39KjQRqL0fbUgWPeY", "formatted_address": "Suizhou, Hubei, China", "types": ["locality", "political"]}]}, {"status": "OK", "results": [{"geometry": {"location_type": "GEOMETRIC_CENTER", "bounds": {"northeast": {"lat": 33.9846648, "lng": -79.15291359999999}, "southwest": {"lat": 33.9824368, "lng": -79.1541912}}, "viewport": {"northeast": {"lat": 33.9848997802915, "lng": -79.1522034197085}, "southwest": {"lat": 33.9822018197085, "lng": -79.1549013802915}}, "location": {"lat": 33.9835818, "lng": -79.1534295}}, "address_components": [{"long_name": "Location", "types": ["route"], "short_name": "Location"}, {"long_name": "Aynor", "types": ["locality", "political"], "short_name": "Aynor"}, {"long_name": "Horry County", "types": ["administrative_area_level_2", "political"], "short_name": "Horry County"}, {"long_name": "South Carolina", "types": ["administrative_area_level_1", "political"], "short_name": "SC"}, {"long_name": "United States", "types": ["country", "political"], "short_name": "US"}, {"long_name": "29511", "types": ["postal_code"], "short_name": "29511"}], "place_id": "ChIJzfBkCwAJAIkRh6R_0uWFT0c", "formatted_address": "Location, Aynor, SC 29511, USA", "types": ["route"]}, {"geometry": {"location_type": "APPROXIMATE", "bounds": {"northeast": {"lat": -25.7361219, "lng": 28.179474}, "southwest": {"lat": -25.7476371, "lng": 28.172127}}, "viewport": {"northeast": {"lat": -25.7361219, "lng": 28.179474}, "southwest": {"lat": -25.7476371, "lng": 28.172127}}, "location": {"lat": -25.7394229, "lng": 28.1758982}}, "address_components": [{"long_name": "Asiatic Bazaar", "types": ["sublocality_level_1", "sublocality", "political"], "short_name": "Asiatic Bazaar"}, {"long_name": "Pretoria", "types": ["locality", "political"], "short_name": "Pretoria"}, {"long_name": "Tshwane", "types": ["administrative_area_level_3", "political"], "short_name": "Tshwane"}, {"long_name": "Pretoria", "types": ["administrative_area_level_2", "political"], "short_name": "Pretoria"}, {"long_name": "Gauteng", "types": ["administrative_area_level_1", "political"], "short_name": "GP"}, {"long_name": "South Africa", "types": ["country", "political"], "short_name": "ZA"}], "place_id": "ChIJxdKUdnZilR4RPt8vwZ_E1do", "formatted_address": "Asiatic Bazaar, Pretoria, South Africa", "types": ["sublocality_level_1", "sublocality", "political"]}]}, {"status": "OK", "results": [{"geometry": {"location": {"lat": 30.607485, "lng": 114.424268}, "viewport": {"northeast": {"lat": 30.6088339802915, "lng": 114.4256169802915}, "southwest": {"lat": 30.6061360197085, "lng": 114.4229190197085}}, "location_type": "APPROXIMATE"}, "address_components": [{"long_name": "Wuhan Railway Station", "types": ["train_station", "transit_station", "point_of_interest", "establishment"], "short_name": "Wuhan Railway Station"}, {"long_name": "Huang He Lu", "types": ["route"], "short_name": "Huang He Lu"}, {"long_name": "Hongshan Qu", "types": ["sublocality_level_1", "sublocality", "political"], "short_name": "Hongshan Qu"}, {"long_name": "Wuhan Shi", "types": ["locality", "political"], "short_name": "Wuhan Shi"}, {"long_name": "Hubei Sheng", "types": ["administrative_area_level_1", "political"], "short_name": "Hubei Sheng"}, {"long_name": "China", "types": ["country", "political"], "short_name": "CN"}], "place_id": "ChIJk77vFsqmLjQRi1NnP-aFfv0", "formatted_address": "Wuhan Railway Station, Huang He Lu, Hongshan Qu, Wuhan Shi, Hubei Sheng, China", "types": ["train_station", "transit_station", "point_of_interest", "establishment"]}, {"geometry": {"location_type": "APPROXIMATE", "bounds": {"northeast": {"lat": 31.3612603, "lng": 115.0825728}, "southwest": {"lat": 29.9690767, "lng": 113.7022811}}, "viewport": {"northeast": {"lat": 30.78745989999999, "lng": 114.618988}, "southwest": {"lat": 30.3487721, "lng": 113.981781}}, "location": {"lat": 30.593099, "lng": 114.305393}}, "address_components": [{"long_name": "Wuhan", "types": ["locality", "political"], "short_name": "Wuhan"}, {"long_name": "Hubei", "types": ["administrative_area_level_1", "political"], "short_name": "Hubei"}, {"long_name": "China", "types": ["country", "political"], "short_name": "CN"}], "place_id": "ChIJb_KF3fiuLjQRECJYbKzJwjk", "formatted_address": "Wuhan, Hubei, China", "types": ["locality", "political"]}]}, {"status": "OK", "results": [{"geometry": {"location_type": "APPROXIMATE", "bounds": {"northeast": {"lat": 31.56938049999999, "lng": 112.0864411}, "southwest": {"lat": 29.9430743, "lng": 110.2556371}}, "viewport": {"northeast": {"lat": 30.8219719, "lng": 111.4377594}, "southwest": {"lat": 30.58700019999999, "lng": 111.1562347}}, "location": {"lat": 30.691967, "lng": 111.286471}}, "address_components": [{"long_name": "Yichang", "types": ["locality", "political"], "short_name": "Yichang"}, {"long_name": "Hubei", "types": ["administrative_area_level_1", "political"], "short_name": "Hubei"}, {"long_name": "China", "types": ["country", "political"], "short_name": "CN"}], "place_id": "ChIJLZ7dkTWFgzYRE-M9fO9_VFM", "formatted_address": "Yichang, Hubei, China", "types": ["locality", "political"]}]}, {"status": "OK", "results": [{"geometry": {"location": {"lat": 39.136253, "lng": 117.209479}, "viewport": {"northeast": {"lat": 39.13760198029149, "lng": 117.2108279802915}, "southwest": {"lat": 39.13490401970849, "lng": 117.2081300197085}}, "location_type": "APPROXIMATE"}, "address_components": [{"long_name": "Tianjin Railway Station", "types": ["train_station", "transit_station", "point_of_interest", "establishment"], "short_name": "Tianjin Railway Station"}, {"long_name": "Hai He Dong Lu", "types": ["route"], "short_name": "Hai He Dong Lu"}, {"long_name": "Hebei Qu", "types": ["sublocality_level_1", "sublocality", "political"], "short_name": "Hebei Qu"}, {"long_name": "Tianjin", "types": ["locality", "political"], "short_name": "Tianjin"}, {"long_name": "Tianjin Shi", "types": ["administrative_area_level_1", "political"], "short_name": "Tianjin Shi"}, {"long_name": "China", "types": ["country", "political"], "short_name": "CN"}, {"long_name": "300010", "types": ["postal_code"], "short_name": "300010"}], "place_id": "ChIJixEdsMj97TURn554_g-jtAY", "formatted_address": "Tianjin Railway Station, Hai He Dong Lu, Hebei Qu, Tianjin Shi, China, 300141", "types": ["train_station", "transit_station", "point_of_interest", "establishment"]}, {"geometry": {"location": {"lat": 33.564369, "lng": 131.291793}, "viewport": {"northeast": {"lat": 33.5657179802915, "lng": 131.2931419802915}, "southwest": {"lat": 33.5630200197085, "lng": 131.2904440197085}}, "location_type": "APPROXIMATE"}, "address_components": [{"long_name": "Amatsu Station", "types": ["train_station", "transit_station", "point_of_interest", "establishment"], "short_name": "Amatsu Station"}, {"long_name": "Shimoshikida", "types": ["sublocality_level_1", "sublocality", "political"], "short_name": "Shimoshikida"}, {"long_name": "Usa", "types": ["locality", "political"], "short_name": "Usa"}, {"long_name": "Oita Prefecture", "types": ["administrative_area_level_1", "political"], "short_name": "Oita Prefecture"}, {"long_name": "Japan", "types": ["country", "political"], "short_name": "JP"}, {"long_name": "879-0161", "types": ["postal_code"], "short_name": "879-0161"}], "place_id": "ChIJw0clTw8IRDURFA2aF-vPQRI", "formatted_address": "Amatsu Station, Shimoshikida, Usa, Oita Prefecture 879-0161, Japan", "types": ["train_station", "transit_station", "point_of_interest", "establishment"]}, {"geometry": {"location_type": "APPROXIMATE", "bounds": {"northeast": {"lat": 40.2532141, "lng": 118.0656116}, "southwest": {"lat": 38.5555781, "lng": 116.7080286}}, "viewport": {"northeast": {"lat": 39.4468325, "lng": 117.8118896}, "southwest": {"lat": 38.8032309, "lng": 116.7791748}}, "location": {"lat": 39.084158, "lng": 117.200983}}, "address_components": [{"long_name": "Tianjin", "types": ["locality", "political"], "short_name": "Tianjin"}, {"long_name": "Tianjin", "types": ["administrative_area_level_1", "political"], "short_name": "Tianjin"}, {"long_name": "China", "types": ["country", "political"], "short_name": "CN"}], "place_id": "ChIJhw4sHmL87TURMUCIMLeUcYQ", "formatted_address": "Tianjin, Tianjin, China", "types": ["locality", "political"]}]}, {"status": "OK", "results": [{"geometry": {"location": {"lat": 39.136253, "lng": 117.209479}, "viewport": {"northeast": {"lat": 39.13760198029149, "lng": 117.2108279802915}, "southwest": {"lat": 39.13490401970849, "lng": 117.2081300197085}}, "location_type": "APPROXIMATE"}, "address_components": [{"long_name": "Tianjin Railway Station", "types": ["train_station", "transit_station", "point_of_interest", "establishment"], "short_name": "Tianjin Railway Station"}, {"long_name": "Hai He Dong Lu", "types": ["route"], "short_name": "Hai He Dong Lu"}, {"long_name": "Hebei Qu", "types": ["sublocality_level_1", "sublocality", "political"], "short_name": "Hebei Qu"}, {"long_name": "Tianjin", "types": ["locality", "political"], "short_name": "Tianjin"}, {"long_name": "Tianjin Shi", "types": ["administrative_area_level_1", "political"], "short_name": "Tianjin Shi"}, {"long_name": "China", "types": ["country", "political"], "short_name": "CN"}, {"long_name": "300010", "types": ["postal_code"], "short_name": "300010"}], "place_id": "ChIJixEdsMj97TURn554_g-jtAY", "formatted_address": "Tianjin Railway Station, Hai He Dong Lu, Hebei Qu, Tianjin Shi, China, 300141", "types": ["train_station", "transit_station", "point_of_interest", "establishment"]}, {"geometry": {"location": {"lat": 33.564369, "lng": 131.291793}, "viewport": {"northeast": {"lat": 33.5657179802915, "lng": 131.2931419802915}, "southwest": {"lat": 33.5630200197085, "lng": 131.2904440197085}}, "location_type": "APPROXIMATE"}, "address_components": [{"long_name": "Amatsu Station", "types": ["train_station", "transit_station", "point_of_interest", "establishment"], "short_name": "Amatsu Station"}, {"long_name": "Shimoshikida", "types": ["sublocality_level_1", "sublocality", "political"], "short_name": "Shimoshikida"}, {"long_name": "Usa", "types": ["locality", "political"], "short_name": "Usa"}, {"long_name": "Oita Prefecture", "types": ["administrative_area_level_1", "political"], "short_name": "Oita Prefecture"}, {"long_name": "Japan", "types": ["country", "political"], "short_name": "JP"}, {"long_name": "879-0161", "types": ["postal_code"], "short_name": "879-0161"}], "place_id": "ChIJw0clTw8IRDURFA2aF-vPQRI", "formatted_address": "Amatsu Station, Shimoshikida, Usa, Oita Prefecture 879-0161, Japan", "types": ["train_station", "transit_station", "point_of_interest", "establishment"]}, {"geometry": {"location_type": "APPROXIMATE", "bounds": {"northeast": {"lat": 40.2532141, "lng": 118.0656116}, "southwest": {"lat": 38.5555781, "lng": 116.7080286}}, "viewport": {"northeast": {"lat": 39.4468325, "lng": 117.8118896}, "southwest": {"lat": 38.8032309, "lng": 116.7791748}}, "location": {"lat": 39.084158, "lng": 117.200983}}, "address_components": [{"long_name": "Tianjin", "types": ["locality", "political"], "short_name": "Tianjin"}, {"long_name": "Tianjin", "types": ["administrative_area_level_1", "political"], "short_name": "Tianjin"}, {"long_name": "China", "types": ["country", "political"], "short_name": "CN"}], "place_id": "ChIJhw4sHmL87TURMUCIMLeUcYQ", "formatted_address": "Tianjin, Tianjin, China", "types": ["locality", "political"]}]}, {"status": "OK", "results": [{"geometry": {"location_type": "GEOMETRIC_CENTER", "bounds": {"northeast": {"lat": 33.9846648, "lng": -79.15291359999999}, "southwest": {"lat": 33.9824368, "lng": -79.1541912}}, "viewport": {"northeast": {"lat": 33.9848997802915, "lng": -79.1522034197085}, "southwest": {"lat": 33.9822018197085, "lng": -79.1549013802915}}, "location": {"lat": 33.9835818, "lng": -79.1534295}}, "address_components": [{"long_name": "Location", "types": ["route"], "short_name": "Location"}, {"long_name": "Aynor", "types": ["locality", "political"], "short_name": "Aynor"}, {"long_name": "Horry County", "types": ["administrative_area_level_2", "political"], "short_name": "Horry County"}, {"long_name": "South Carolina", "types": ["administrative_area_level_1", "political"], "short_name": "SC"}, {"long_name": "United States", "types": ["country", "political"], "short_name": "US"}, {"long_name": "29511", "types": ["postal_code"], "short_name": "29511"}], "place_id": "ChIJzfBkCwAJAIkRh6R_0uWFT0c", "formatted_address": "Location, Aynor, SC 29511, USA", "types": ["route"]}, {"geometry": {"location_type": "APPROXIMATE", "bounds": {"northeast": {"lat": -25.7361219, "lng": 28.179474}, "southwest": {"lat": -25.7476371, "lng": 28.172127}}, "viewport": {"northeast": {"lat": -25.7361219, "lng": 28.179474}, "southwest": {"lat": -25.7476371, "lng": 28.172127}}, "location": {"lat": -25.7394229, "lng": 28.1758982}}, "address_components": [{"long_name": "Asiatic Bazaar", "types": ["sublocality_level_1", "sublocality", "political"], "short_name": "Asiatic Bazaar"}, {"long_name": "Pretoria", "types": ["locality", "political"], "short_name": "Pretoria"}, {"long_name": "Tshwane", "types": ["administrative_area_level_3", "political"], "short_name": "Tshwane"}, {"long_name": "Pretoria", "types": ["administrative_area_level_2", "political"], "short_name": "Pretoria"}, {"long_name": "Gauteng", "types": ["administrative_area_level_1", "political"], "short_name": "GP"}, {"long_name": "South Africa", "types": ["country", "political"], "short_name": "ZA"}], "place_id": "ChIJxdKUdnZilR4RPt8vwZ_E1do", "formatted_address": "Asiatic Bazaar, Pretoria, South Africa", "types": ["sublocality_level_1", "sublocality", "political"]}]}, {"status": "OK", "results": [{"geometry": {"location_type": "APPROXIMATE", "bounds": {"northeast": {"lat": 30.0749464, "lng": 118.4871059}, "southwest": {"lat": 24.4862522, "lng": 113.5781862}}, "viewport": {"northeast": {"lat": 30.0749464, "lng": 118.4871059}, "southwest": {"lat": 24.4862522, "lng": 113.5781862}}, "location": {"lat": 28.675697, "lng": 115.909228}}, "address_components": [{"long_name": "Jiangxi", "types": ["administrative_area_level_1", "political"], "short_name": "Jiangxi"}, {"long_name": "China", "types": ["country", "political"], "short_name": "CN"}], "place_id": "ChIJIXUyNUX2LzQR_wfvzG--O64", "formatted_address": "Jiangxi, China", "types": ["administrative_area_level_1", "political"]}]}, {"status": "OK", "results": [{"geometry": {"location": {"lat": 29.292236, "lng": 117.22262}, "viewport": {"northeast": {"lat": 29.2935849802915, "lng": 117.2239689802915}, "southwest": {"lat": 29.2908870197085, "lng": 117.2212710197085}}, "location_type": "APPROXIMATE"}, "address_components": [{"long_name": "景德镇", "types": ["train_station", "transit_station", "point_of_interest", "establishment"], "short_name": "景德镇"}, {"long_name": "珠山区", "types": ["sublocality_level_1", "sublocality", "political"], "short_name": "珠山区"}, {"long_name": "景德镇", "types": ["locality", "political"], "short_name": "景德镇"}, {"long_name": "China", "types": ["country", "political"], "short_name": "CN"}, {"long_name": "333000", "types": ["postal_code"], "short_name": "333000"}], "place_id": "ChIJT6n-vGEsNzQR-o6Y0KJVUhw", "formatted_address": "China, 景德镇市珠山区景德镇 邮政编码: 333000", "types": ["train_station", "transit_station", "point_of_interest", "establishment"]}, {"geometry": {"location_type": "APPROXIMATE", "bounds": {"northeast": {"lat": 29.9275778, "lng": 117.7076622}, "southwest": {"lat": 28.7192093, "lng": 116.9621564}}, "viewport": {"northeast": {"lat": 29.3995716, "lng": 117.3265815}, "southwest": {"lat": 29.1931273, "lng": 117.0640254}}, "location": {"lat": 29.268836, "lng": 117.17842}}, "address_components": [{"long_name": "Jingdezhen", "types": ["locality", "political"], "short_name": "Jingdezhen"}, {"long_name": "Jiangxi", "types": ["administrative_area_level_1", "political"], "short_name": "Jiangxi"}, {"long_name": "China", "types": ["country", "political"], "short_name": "CN"}], "place_id": "ChIJERRB91DMMDQRot4iJgH2PIk", "formatted_address": "Jingdezhen, Jiangxi, China", "types": ["locality", "political"]}]}, {"status": "OK", "results": [{"geometry": {"location": {"lat": 28.65422199999999, "lng": 115.91901}, "viewport": {"northeast": {"lat": 28.65557098029149, "lng": 115.9203589802915}, "southwest": {"lat": 28.6528730197085, "lng": 115.9176610197085}}, "location_type": "APPROXIMATE"}, "address_components": [{"long_name": "南昌", "types": ["train_station", "transit_station", "point_of_interest", "establishment"], "short_name": "南昌"}, {"long_name": "青云谱区", "types": ["sublocality_level_1", "sublocality", "political"], "short_name": "青云谱区"}, {"long_name": "南昌", "types": ["locality", "political"], "short_name": "南昌"}, {"long_name": "China", "types": ["country", "political"], "short_name": "CN"}, {"long_name": "330000", "types": ["postal_code"], "short_name": "330000"}], "place_id": "ChIJ-Sg_P5S4OjQRyIBsiaBBHK4", "formatted_address": "China, 南昌市青云谱区南昌 邮政编码: 330000", "types": ["train_station", "transit_station", "point_of_interest", "establishment"]}, {"geometry": {"location_type": "APPROXIMATE", "bounds": {"northeast": {"lat": 29.1194841, "lng": 116.5654825}, "southwest": {"lat": 28.157839, "lng": 115.4387053}}, "viewport": {"northeast": {"lat": 28.8767255, "lng": 116.1282349}, "southwest": {"lat": 28.4851326, "lng": 115.680542}}, "location": {"lat": 28.682892, "lng": 115.858198}}, "address_components": [{"long_name": "Nanchang", "types": ["locality", "political"], "short_name": "Nanchang"}, {"long_name": "Jiangxi", "types": ["administrative_area_level_1", "political"], "short_name": "Jiangxi"}, {"long_name": "China", "types": ["country", "political"], "short_name": "CN"}], "place_id": "ChIJsa8N8la4OjQRPti6RZmRgPE", "formatted_address": "Nanchang, Jiangxi, China", "types": ["locality", "political"]}, {"geometry": {"location_type": "APPROXIMATE", "bounds": {"northeast": {"lat": 28.9606842, "lng": 116.3240807}, "southwest": {"lat": 28.2682907, "lng": 115.8081595}}, "viewport": {"northeast": {"lat": 28.9606842, "lng": 116.3240807}, "southwest": {"lat": 28.2682907, "lng": 115.8081595}}, "location": {"lat": 28.545459, "lng": 115.944162}}, "address_components": [{"long_name": "Nanchang", "types": ["sublocality_level_1", "sublocality", "political"], "short_name": "Nanchang"}, {"long_name": "Nanchang", "types": ["locality", "political"], "short_name": "Nanchang"}, {"long_name": "Jiangxi", "types": ["administrative_area_level_1", "political"], "short_name": "Jiangxi"}, {"long_name": "China", "types": ["country", "political"], "short_name": "CN"}], "place_id": "ChIJ4XlJQsrqOjQRU9C5PRRdr5s", "formatted_address": "Nanchang, Nanchang, Jiangxi, China", "types": ["sublocality_level_1", "sublocality", "political"]}, {"geometry": {"location_type": "APPROXIMATE", "bounds": {"northeast": {"lat": 31.5801452, "lng": 120.3475847}, "southwest": {"lat": 31.5128252, "lng": 120.2793545}}, "viewport": {"northeast": {"lat": 31.5801452, "lng": 120.3475847}, "southwest": {"lat": 31.5128252, "lng": 120.2793545}}, "location": {"lat": 31.563696, "lng": 120.308676}}, "address_components": [{"long_name": "Nanchang", "types": ["sublocality_level_1", "sublocality", "political"], "short_name": "Nanchang"}, {"long_name": "Wuxi", "types": ["locality", "political"], "short_name": "Wuxi"}, {"long_name": "Jiangsu", "types": ["administrative_area_level_1", "political"], "short_name": "Jiangsu"}, {"long_name": "China", "types": ["country", "political"], "short_name": "CN"}], "place_id": "ChIJiUvlplKOszUR8Dt_hkYoNPk", "formatted_address": "Nanchang, Wuxi, Jiangsu, China", "types": ["sublocality_level_1", "sublocality", "political"]}]}, {"status": "OK", "results": [{"geometry": {"location_type": "APPROXIMATE", "bounds": {"northeast": {"lat": 27.1436559, "lng": 116.6382115}, "southwest": {"lat": 24.4862522, "lng": 113.9136074}}, "viewport": {"northeast": {"lat": 25.9208788, "lng": 115.0694275}, "southwest": {"lat": 25.7527856, "lng": 114.8112488}}, "location": {"lat": 25.831829, "lng": 114.93503}}, "address_components": [{"long_name": "Ganzhou", "types": ["locality", "political"], "short_name": "Ganzhou"}, {"long_name": "Jiangxi", "types": ["administrative_area_level_1", "political"], "short_name": "Jiangxi"}, {"long_name": "China", "types": ["country", "political"], "short_name": "CN"}], "place_id": "ChIJFxwkII9HGDQR0Ej8BWLgZuU", "formatted_address": "Ganzhou, Jiangxi, China", "types": ["locality", "political"]}]}, {"status": "OK", "results": [{"geometry": {"location_type": "GEOMETRIC_CENTER", "bounds": {"northeast": {"lat": 33.9846648, "lng": -79.15291359999999}, "southwest": {"lat": 33.9824368, "lng": -79.1541912}}, "viewport": {"northeast": {"lat": 33.9848997802915, "lng": -79.1522034197085}, "southwest": {"lat": 33.9822018197085, "lng": -79.1549013802915}}, "location": {"lat": 33.9835818, "lng": -79.1534295}}, "address_components": [{"long_name": "Location", "types": ["route"], "short_name": "Location"}, {"long_name": "Aynor", "types": ["locality", "political"], "short_name": "Aynor"}, {"long_name": "Horry County", "types": ["administrative_area_level_2", "political"], "short_name": "Horry County"}, {"long_name": "South Carolina", "types": ["administrative_area_level_1", "political"], "short_name": "SC"}, {"long_name": "United States", "types": ["country", "political"], "short_name": "US"}, {"long_name": "29511", "types": ["postal_code"], "short_name": "29511"}], "place_id": "ChIJzfBkCwAJAIkRh6R_0uWFT0c", "formatted_address": "Location, Aynor, SC 29511, USA", "types": ["route"]}, {"geometry": {"location_type": "APPROXIMATE", "bounds": {"northeast": {"lat": -25.7361219, "lng": 28.179474}, "southwest": {"lat": -25.7476371, "lng": 28.172127}}, "viewport": {"northeast": {"lat": -25.7361219, "lng": 28.179474}, "southwest": {"lat": -25.7476371, "lng": 28.172127}}, "location": {"lat": -25.7394229, "lng": 28.1758982}}, "address_components": [{"long_name": "Asiatic Bazaar", "types": ["sublocality_level_1", "sublocality", "political"], "short_name": "Asiatic Bazaar"}, {"long_name": "Pretoria", "types": ["locality", "political"], "short_name": "Pretoria"}, {"long_name": "Tshwane", "types": ["administrative_area_level_3", "political"], "short_name": "Tshwane"}, {"long_name": "Pretoria", "types": ["administrative_area_level_2", "political"], "short_name": "Pretoria"}, {"long_name": "Gauteng", "types": ["administrative_area_level_1", "political"], "short_name": "GP"}, {"long_name": "South Africa", "types": ["country", "political"], "short_name": "ZA"}], "place_id": "ChIJxdKUdnZilR4RPt8vwZ_E1do", "formatted_address": "Asiatic Bazaar, Pretoria, South Africa", "types": ["sublocality_level_1", "sublocality", "political"]}]}, {"status": "OK", "results": [{"geometry": {"location_type": "APPROXIMATE", "bounds": {"northeast": {"lat": 53.5636239, "lng": 135.0956699}, "southwest": {"lat": 43.4257985, "lng": 121.1817531}}, "viewport": {"northeast": {"lat": 53.5636239, "lng": 135.0956699}, "southwest": {"lat": 43.4257985, "lng": 121.1817531}}, "location": {"lat": 45.74236699999999, "lng": 126.661665}}, "address_components": [{"long_name": "Heilongjiang", "types": ["administrative_area_level_1", "political"], "short_name": "Heilongjiang"}, {"long_name": "China", "types": ["country", "political"], "short_name": "CN"}], "place_id": "ChIJf5YvzrYfW14RAK9gg8wDQ_0", "formatted_address": "Heilongjiang, China", "types": ["administrative_area_level_1", "political"]}]}, {"status": "OK", "results": [{"geometry": {"location_type": "APPROXIMATE", "bounds": {"northeast": {"lat": 48.459567, "lng": 135.0956699}, "southwest": {"lat": 45.9453077, "lng": 129.5014532}}, "viewport": {"northeast": {"lat": 46.8948079, "lng": 130.5361176}, "southwest": {"lat": 46.72468139999999, "lng": 130.2243805}}, "location": {"lat": 46.799778, "lng": 130.318879}}, "address_components": [{"long_name": "Jiamusi", "types": ["locality", "political"], "short_name": "Jiamusi"}, {"long_name": "Heilongjiang", "types": ["administrative_area_level_1", "political"], "short_name": "Heilongjiang"}, {"long_name": "China", "types": ["country", "political"], "short_name": "CN"}], "place_id": "ChIJQ6XWd2DqWV4RF0hI2GJ8xPQ", "formatted_address": "Jiamusi, Heilongjiang, China", "types": ["locality", "political"]}]}, {"status": "OK", "results": [{"geometry": {"location_type": "GEOMETRIC_CENTER", "bounds": {"northeast": {"lat": 33.9846648, "lng": -79.15291359999999}, "southwest": {"lat": 33.9824368, "lng": -79.1541912}}, "viewport": {"northeast": {"lat": 33.9848997802915, "lng": -79.1522034197085}, "southwest": {"lat": 33.9822018197085, "lng": -79.1549013802915}}, "location": {"lat": 33.9835818, "lng": -79.1534295}}, "address_components": [{"long_name": "Location", "types": ["route"], "short_name": "Location"}, {"long_name": "Aynor", "types": ["locality", "political"], "short_name": "Aynor"}, {"long_name": "Horry County", "types": ["administrative_area_level_2", "political"], "short_name": "Horry County"}, {"long_name": "South Carolina", "types": ["administrative_area_level_1", "political"], "short_name": "SC"}, {"long_name": "United States", "types": ["country", "political"], "short_name": "US"}, {"long_name": "29511", "types": ["postal_code"], "short_name": "29511"}], "place_id": "ChIJzfBkCwAJAIkRh6R_0uWFT0c", "formatted_address": "Location, Aynor, SC 29511, USA", "types": ["route"]}, {"geometry": {"location_type": "APPROXIMATE", "bounds": {"northeast": {"lat": -25.7361219, "lng": 28.179474}, "southwest": {"lat": -25.7476371, "lng": 28.172127}}, "viewport": {"northeast": {"lat": -25.7361219, "lng": 28.179474}, "southwest": {"lat": -25.7476371, "lng": 28.172127}}, "location": {"lat": -25.7394229, "lng": 28.1758982}}, "address_components": [{"long_name": "Asiatic Bazaar", "types": ["sublocality_level_1", "sublocality", "political"], "short_name": "Asiatic Bazaar"}, {"long_name": "Pretoria", "types": ["locality", "political"], "short_name": "Pretoria"}, {"long_name": "Tshwane", "types": ["administrative_area_level_3", "political"], "short_name": "Tshwane"}, {"long_name": "Pretoria", "types": ["administrative_area_level_2", "political"], "short_name": "Pretoria"}, {"long_name": "Gauteng", "types": ["administrative_area_level_1", "political"], "short_name": "GP"}, {"long_name": "South Africa", "types": ["country", "political"], "short_name": "ZA"}], "place_id": "ChIJxdKUdnZilR4RPt8vwZ_E1do", "formatted_address": "Asiatic Bazaar, Pretoria, South Africa", "types": ["sublocality_level_1", "sublocality", "political"]}]}, {"status": "OK", "results": [{"geometry": {"location": {"lat": 45.765015, "lng": 126.63489}, "viewport": {"northeast": {"lat": 45.76636398029149, "lng": 126.6362389802915}, "southwest": {"lat": 45.7636660197085, "lng": 126.6335410197085}}, "location_type": "APPROXIMATE"}, "address_components": [{"long_name": "哈尔滨", "types": ["train_station", "transit_station", "point_of_interest", "establishment"], "short_name": "哈尔滨"}, {"long_name": "南岗区", "types": ["sublocality_level_1", "sublocality", "political"], "short_name": "南岗区"}, {"long_name": "哈尔滨", "types": ["locality", "political"], "short_name": "哈尔滨"}, {"long_name": "China", "types": ["country", "political"], "short_name": "CN"}, {"long_name": "150010", "types": ["postal_code"], "short_name": "150010"}], "place_id": "ChIJMxXqIHWAQ14RPFf7neCvqyQ", "formatted_address": "China, 哈尔滨市南岗区哈尔滨 邮政编码: 150001", "types": ["train_station", "transit_station", "point_of_interest", "establishment"]}, {"geometry": {"location_type": "APPROXIMATE", "bounds": {"northeast": {"lat": 46.6743865, "lng": 130.24084}, "southwest": {"lat": 44.0622367, "lng": 125.6878944}}, "viewport": {"northeast": {"lat": 45.8838096, "lng": 126.8799341}, "southwest": {"lat": 45.6306503, "lng": 126.4241087}}, "location": {"lat": 45.80377499999999, "lng": 126.534967}}, "address_components": [{"long_name": "Harbin", "types": ["locality", "political"], "short_name": "Harbin"}, {"long_name": "Heilongjiang", "types": ["administrative_area_level_1", "political"], "short_name": "Heilongjiang"}, {"long_name": "China", "types": ["country", "political"], "short_name": "CN"}], "place_id": "ChIJYRRkpvhkQ14R1SygWnOSfF4", "formatted_address": "Harbin, Heilongjiang, China", "types": ["locality", "political"]}]}, {"status": "OK", "results": [{"geometry": {"location_type": "APPROXIMATE", "bounds": {"northeast": {"lat": 25.5167714, "lng": 117.3185073}, "southwest": {"lat": 20.2209735, "lng": 109.668994}}, "viewport": {"northeast": {"lat": 25.5167714, "lng": 117.3185073}, "southwest": {"lat": 20.2209735, "lng": 109.668994}}, "location": {"lat": 23.132191, "lng": 113.266531}}, "address_components": [{"long_name": "Guangdong", "types": ["administrative_area_level_1", "political"], "short_name": "Guangdong"}, {"long_name": "China", "types": ["country", "political"], "short_name": "CN"}], "place_id": "ChIJP1yvMvGFUjERKZ8lCW8c1C4", "formatted_address": "Guangdong, China", "types": ["administrative_area_level_1", "political"]}]}, {"status": "OK", "results": [{"geometry": {"location": {"lat": 23.150696, "lng": 113.25697}, "viewport": {"northeast": {"lat": 23.1520449802915, "lng": 113.2583189802915}, "southwest": {"lat": 23.1493470197085, "lng": 113.2556210197085}}, "location_type": "APPROXIMATE"}, "address_components": [{"long_name": "广州", "types": ["train_station", "transit_station", "point_of_interest", "establishment"], "short_name": "广州"}, {"long_name": "三元里", "types": ["neighborhood", "political"], "short_name": "三元里"}, {"long_name": "越秀区", "types": ["sublocality_level_1", "sublocality", "political"], "short_name": "越秀区"}, {"long_name": "广州", "types": ["locality", "political"], "short_name": "广州"}, {"long_name": "China", "types": ["country", "political"], "short_name": "CN"}, {"long_name": "510403", "types": ["postal_code"], "short_name": "510403"}], "place_id": "ChIJt2j8Axz5AjQR2iEawVKYxO8", "formatted_address": "China, 广州市越秀区三元里广州 邮政编码: 510400", "types": ["train_station", "transit_station", "point_of_interest", "establishment"]}, {"geometry": {"location_type": "APPROXIMATE", "bounds": {"northeast": {"lat": 23.9329877, "lng": 114.0599571}, "southwest": {"lat": 22.5598069, "lng": 112.9585068}}, "viewport": {"northeast": {"lat": 23.555094, "lng": 113.7332153}, "southwest": {"lat": 22.6961015, "lng": 112.7224731}}, "location": {"lat": 23.12911, "lng": 113.264385}}, "address_components": [{"long_name": "Guangzhou", "types": ["locality", "political"], "short_name": "Guangzhou"}, {"long_name": "Guangdong", "types": ["administrative_area_level_1", "political"], "short_name": "Guangdong"}, {"long_name": "China", "types": ["country", "political"], "short_name": "CN"}], "place_id": "ChIJxytco5X4AjQRFeTqrXXgWQ4", "formatted_address": "Guangzhou, Guangdong, China", "types": ["locality", "political"]}]}, {"status": "OK", "results": [{"geometry": {"location_type": "APPROXIMATE", "bounds": {"northeast": {"lat": 23.5734509, "lng": 113.3934284}, "southwest": {"lat": 22.6422438, "lng": 112.3908185}}, "viewport": {"northeast": {"lat": 23.1440748, "lng": 113.2717896}, "southwest": {"lat": 22.8735877, "lng": 112.9408264}}, "location": {"lat": 23.021479, "lng": 113.121436}}, "address_components": [{"long_name": "Foshan", "types": ["locality", "political"], "short_name": "Foshan"}, {"long_name": "Guangdong", "types": ["administrative_area_level_1", "political"], "short_name": "Guangdong"}, {"long_name": "China", "types": ["country", "political"], "short_name": "CN"}], "place_id": "ChIJt6V5UFhZAjQRGe397NrIYUA", "formatted_address": "Foshan, Guangdong, China", "types": ["locality", "political"]}]}, {"status": "OK", "results": [{"geometry": {"location": {"lat": 23.092066, "lng": 113.85495}, "viewport": {"northeast": {"lat": 23.0934149802915, "lng": 113.8562989802915}, "southwest": {"lat": 23.0907170197085, "lng": 113.8536010197085}}, "location_type": "APPROXIMATE"}, "address_components": [{"long_name": "东莞", "types": ["train_station", "transit_station", "point_of_interest", "establishment"], "short_name": "东莞"}, {"long_name": "东莞市", "types": ["locality", "political"], "short_name": "东莞市"}, {"long_name": "China", "types": ["country", "political"], "short_name": "CN"}], "place_id": "ChIJkZf_DAF0AzQRSK8s4uXhhJs", "formatted_address": "China, 东莞市东莞", "types": ["train_station", "transit_station", "point_of_interest", "establishment"]}, {"geometry": {"location_type": "APPROXIMATE", "bounds": {"northeast": {"lat": 23.1420507, "lng": 114.2603125}, "southwest": {"lat": 22.6537024, "lng": 113.5226997}}, "viewport": {"northeast": {"lat": 23.2119382, "lng": 114.0394592}, "southwest": {"lat": 22.7404596, "lng": 113.5491943}}, "location": {"lat": 23.020536, "lng": 113.751765}}, "address_components": [{"long_name": "Dongguan", "types": ["locality", "political"], "short_name": "Dongguan"}, {"long_name": "Guangdong", "types": ["administrative_area_level_1", "political"], "short_name": "Guangdong"}, {"long_name": "China", "types": ["country", "political"], "short_name": "CN"}], "place_id": "ChIJ5ROI3ZQKAzQRQ3q8DjAgg3Y", "formatted_address": "Dongguan, Guangdong, China", "types": ["locality", "political"]}]}, {"status": "OK", "results": [{"geometry": {"location_type": "APPROXIMATE", "bounds": {"northeast": {"lat": 21.9553961, "lng": 110.9711375}, "southwest": {"lat": 20.2209735, "lng": 109.668994}}, "viewport": {"northeast": {"lat": 21.4070448, "lng": 110.532074}, "southwest": {"lat": 21.0933967, "lng": 110.2079773}}, "location": {"lat": 21.270708, "lng": 110.359377}}, "address_components": [{"long_name": "Zhanjiang", "types": ["locality", "political"], "short_name": "Zhanjiang"}, {"long_name": "Guangdong", "types": ["administrative_area_level_1", "political"], "short_name": "Guangdong"}, {"long_name": "China", "types": ["country", "political"], "short_name": "CN"}], "place_id": "ChIJv0b4X7rYUjERyjEOwG6c-Ws", "formatted_address": "Zhanjiang, Guangdong, China", "types": ["locality", "political"]}]}, {"status": "OK", "results": [{"geometry": {"location_type": "APPROXIMATE", "bounds": {"northeast": {"lat": 22.8617484, "lng": 114.627296}, "southwest": {"lat": 22.4450271, "lng": 113.7569184}}, "viewport": {"northeast": {"lat": 22.7809313, "lng": 114.3553162}, "southwest": {"lat": 22.3293893, "lng": 113.7524414}}, "location": {"lat": 22.543099, "lng": 114.057868}}, "address_components": [{"long_name": "Shenzhen", "types": ["locality", "political"], "short_name": "Shenzhen"}, {"long_name": "Guangdong", "types": ["administrative_area_level_1", "political"], "short_name": "Guangdong"}, {"long_name": "China", "types": ["country", "political"], "short_name": "CN"}], "place_id": "ChIJkVLh0Aj0AzQRyYCStw1V7v0", "formatted_address": "Shenzhen, Guangdong, China", "types": ["locality", "political"]}]}, {"status": "OK", "results": [{"geometry": {"location": {"lat": 22.544531, "lng": 113.433033},