{"type":"FeatureCollection","features":[{"type":"Feature","geometry":{"type":"Point","coordinates":[39.797222,47.115858]},"properties":{"type":"mid","name":"Rostov S.W.","abbrev":null,"location":"runway","gps_code":null,"iata_code":null,"wikipedia":null,"natlscale":10}},{"type":"Feature","geometry":{"type":"Point","coordinates":[21.628197,41.956455]},"properties":{"type":"mid","name":"Skopje","abbrev":"SKP","location":"terminal","gps_code":"LWSK","iata_code":"SKP","wikipedia":"http://en.wikipedia.org/wiki/Skopje_Airport","natlscale":10}},{"type":"Feature","geometry":{"type":"Point","coordinates":[2.3838,6.358247]},"properties":{"type":"mid","name":"Cotonou Cadjehon","abbrev":"COO","location":"terminal","gps_code":"DBBB","iata_code":"COO","wikipedia":"http://en.wikipedia.org/wiki/Cadjehoun_Airport","natlscale":50}},{"type":"Feature","geometry":{"type":"Point","coordinates":[-130.445587,54.292]},"properties":{"type":"mid","name":"Prince Rupert","abbrev":"YPR","location":"terminal","gps_code":"CYPR","iata_code":"YPR","wikipedia":"http://en.wikipedia.org/wiki/Prince_Rupert_Airport","natlscale":50}},{"type":"Feature","geometry":{"type":"Point","coordinates":[31.016249,27.050816]},"properties":{"type":"mid","name":"Asyut","abbrev":"ATZ","location":"terminal","gps_code":"HEAT","iata_code":"ATZ","wikipedia":"http://en.wikipedia.org/wiki/Assiut_Airport","natlscale":20}},{"type":"Feature","geometry":{"type":"Point","coordinates":[-165.441642,64.507221]},"properties":{"type":"mid","name":"Nome","abbrev":"OME","location":"terminal","gps_code":"PAOM","iata_code":"OME","wikipedia":"http://en.wikipedia.org/wiki/Nome_Airport","natlscale":50}},{"type":"Feature","geometry":{"type":"Point","coordinates":[48.747107,31.343159]},"properties":{"type":"mid","name":"Ahwaz","abbrev":"AWZ","location":"terminal","gps_code":"OIAW","iata_code":"AWZ","wikipedia":"http://en.wikipedia.org/wiki/Ahwaz_Airport","natlscale":8}},{"type":"Feature","geometry":{"type":"Point","coordinates":[75.758483,31.432942]},"properties":{"type":"military mid","name":"Adampur","abbrev":"VIAX","location":"runway","gps_code":"VIAX","iata_code":null,"wikipedia":null,"natlscale":8}},{"type":"Feature","geometry":{"type":"Point","coordinates":[83.223522,17.727958]},"properties":{"type":"mid","name":"Vishakapatnam","abbrev":"VTZ","location":"terminal","gps_code":"VEVZ","iata_code":"VTZ","wikipedia":"http://en.wikipedia.org/wiki/Visakhapatnam_Airport","natlscale":10}},{"type":"Feature","geometry":{"type":"Point","coordinates":[77.038894,11.030142]},"properties":{"type":"mid","name":"Coimbatore","abbrev":"CJB","location":"terminal","gps_code":"VOCB","iata_code":"CJB","wikipedia":"http://en.wikipedia.org/wiki/Coimbatore_Airport","natlscale":10}},{"type":"Feature","geometry":{"type":"Point","coordinates":[114.246947,30.601714]},"properties":{"type":"military mid","name":"Wang-Chia Tun Airbase","abbrev":"ZHHH","location":"runway","gps_code":null,"iata_code":null,"wikipedia":null,"natlscale":20}},{"type":"Feature","geometry":{"type":"Point","coordinates":[-49.173709,-25.536]},"properties":{"type":"mid","name":"Afonso Pena Int'l","abbrev":"CWB","location":"terminal","gps_code":"SBCT","iata_code":"CWB","wikipedia":"http://en.wikipedia.org/wiki/Afonso_Pena_International_Airport","natlscale":50}},{"type":"Feature","geometry":{"type":"Point","coordinates":[81.740378,21.185987]},"properties":{"type":"mid","name":"Raipur","abbrev":"RPR","location":"terminal","gps_code":"VARP","iata_code":"RPR","wikipedia":"http://en.wikipedia.org/wiki/Raipur_Airport","natlscale":20}},{"type":"Feature","geometry":{"type":"Point","coordinates":[67.152128,24.898524]},"properties":{"type":"mid","name":"Karachi Civil","abbrev":"KHI","location":"terminal","gps_code":"OPKC","iata_code":"KHI","wikipedia":"http://en.wikipedia.org/wiki/Jinnah_International_Airport","natlscale":50}},{"type":"Feature","geometry":{"type":"Point","coordinates":[8.562213,47.45239]},"properties":{"type":"major","name":"Zurich Int'l","abbrev":"ZRH","location":"terminal","gps_code":"LSZH","iata_code":"ZRH","wikipedia":"http://en.wikipedia.org/wiki/Z%C3%BCrich_Airport","natlscale":75}},{"type":"Feature","geometry":{"type":"Point","coordinates":[75.957072,30.85036]},"properties":{"type":"small","name":"Sahnewal","abbrev":"LUH","location":"terminal","gps_code":"VILD","iata_code":"LUH","wikipedia":"http://en.wikipedia.org/wiki/Sahnewal_Airport","natlscale":8}},{"type":"Feature","geometry":{"type":"Point","coordinates":[75.93306,17.625415]},"properties":{"type":"mid","name":"Solapur","abbrev":"SSE","location":"terminal","gps_code":"VASL","iata_code":"SSE","wikipedia":"http://en.wikipedia.org/wiki/Solapur_Airport","natlscale":8}},{"type":"Feature","geometry":{"type":"Point","coordinates":[85.323597,23.317725]},"properties":{"type":"mid","name":"Birsa Munda","abbrev":"IXR","location":"terminal","gps_code":"VERC","iata_code":"IXR","wikipedia":"http://en.wikipedia.org/wiki/Birsa_Munda_Airport","natlscale":8}},{"type":"Feature","geometry":{"type":"Point","coordinates":[78.217219,26.285488]},"properties":{"type":"mid and military","name":"Gwalior","abbrev":"GWL","location":"terminal","gps_code":"VIGR","iata_code":"GWL","wikipedia":"http://en.wikipedia.org/wiki/Gwalior_Airport","natlscale":8}},{"type":"Feature","geometry":{"type":"Point","coordinates":[42.971096,14.755253]},"properties":{"type":"mid","name":"Hodeidah Int'l","abbrev":"HOD","location":"terminal","gps_code":"OYHD","iata_code":"HOD","wikipedia":"http://en.wikipedia.org/wiki/Hodeida_International_Airport","natlscale":8}},{"type":"Feature","geometry":{"type":"Point","coordinates":[75.809292,22.727749]},"properties":{"type":"mid","name":"Devi Ahilyabai Holkar Int'l","abbrev":"IDR","location":"terminal","gps_code":"VAID","iata_code":"IDR","wikipedia":"http://en.wikipedia.org/wiki/Devi_Ahilyabai_Holkar_International_Airport","natlscale":8}},{"type":"Feature","geometry":{"type":"Point","coordinates":[73.810567,19.966021]},"properties":{"type":"mid","name":"Gandhinagar","abbrev":"ISK","location":"ramp","gps_code":"VANR","iata_code":"ISK","wikipedia":"http://en.wikipedia.org/wiki/Gandhinagar_Airport","natlscale":8}},{"type":"Feature","geometry":{"type":"Point","coordinates":[76.801726,30.670725]},"properties":{"type":"major and military","name":"Chandigarh Int'l","abbrev":"IXC","location":"terminal","gps_code":"VICG","iata_code":"IXC","wikipedia":"http://en.wikipedia.org/wiki/Chandigarh_Airport","natlscale":8}},{"type":"Feature","geometry":{"type":"Point","coordinates":[75.395843,19.867297]},"properties":{"type":"mid","name":"Aurangabad","abbrev":"IXU","location":"terminal","gps_code":"VAAU","iata_code":"IXU","wikipedia":"http://en.wikipedia.org/wiki/Aurangabad_Airport","natlscale":8}},{"type":"Feature","geometry":{"type":"Point","coordinates":[72.987819,31.362744]},"properties":{"type":"mid and military","name":"Faisalabad Int'l","abbrev":"LYP","location":"terminal","gps_code":"OPFA","iata_code":"LYP","wikipedia":"http://en.wikipedia.org/wiki/Faisalabad_International_Airport","natlscale":8}},{"type":"Feature","geometry":{"type":"Point","coordinates":[73.31636,54.957648]},"properties":{"type":"mid","name":"Omsk Tsentralny","abbrev":"OMS","location":"terminal","gps_code":"UNOO","iata_code":"OMS","wikipedia":"http://en.wikipedia.org/wiki/Omsk_Tsentralny_Airport","natlscale":8}},{"type":"Feature","geometry":{"type":"Point","coordinates":[82.667152,55.009585]},"properties":{"type":"mid","name":"Novosibirsk Tolmachev","abbrev":"OVB","location":"terminal","gps_code":"UNNT","iata_code":"OVB","wikipedia":"http://en.wikipedia.org/wiki/Tolmachevo_Airport","natlscale":8}},{"type":"Feature","geometry":{"type":"Point","coordinates":[35.301873,47.873264]},"properties":{"type":"mid and military","name":"Zaporozhye Int'l","abbrev":"OZH","location":"runway","gps_code":"UKDE","iata_code":"OZH","wikipedia":"http://en.wikipedia.org/wiki/Zaporizhia_International_Airport","natlscale":8}},{"type":"Feature","geometry":{"type":"Point","coordinates":[101.446569,0.464601]},"properties":{"type":"mid","name":"Simpang Tiga","abbrev":"PKU","location":"terminal","gps_code":"WIBB","iata_code":"PKU","wikipedia":"http://en.wikipedia.org/wiki/Sultan_Syarif_Qasim_II_International_Airport","natlscale":8}},{"type":"Feature","geometry":{"type":"Point","coordinates":[145.24398,14.171771]},"properties":{"type":"mid","name":"Rota Int'l","abbrev":"ROP","location":"terminal","gps_code":"PGRO","iata_code":"ROP","wikipedia":"http://en.wikipedia.org/wiki/Rota_International_Airport","natlscale":8}},{"type":"Feature","geometry":{"type":"Point","coordinates":[73.408496,61.340167]},"properties":{"type":"mid","name":"Surgut","abbrev":"SGC","location":"terminal","gps_code":"USRR","iata_code":"SGC","wikipedia":"http://en.wikipedia.org/wiki/Surgut_Airport","natlscale":8}},{"type":"Feature","geometry":{"type":"Point","coordinates":[78.708958,10.760357]},"properties":{"type":"mid","name":"Tiruchirappalli","abbrev":"TRZ","location":"terminal","gps_code":"VOTR","iata_code":"TRZ","wikipedia":"http://en.wikipedia.org/wiki/Tiruchirappalli_Airport","natlscale":8}},{"type":"Feature","geometry":{"type":"Point","coordinates":[63.027933,25.988795]},"properties":{"type":"mid","name":"Turbat Int'l","abbrev":"TUK","location":"terminal","gps_code":"OPTU","iata_code":"TUK","wikipedia":"http://en.wikipedia.org/wiki/Turbat_International_Airport","natlscale":8}},{"type":"Feature","geometry":{"type":"Point","coordinates":[66.948731,30.249043]},"properties":{"type":"mid","name":"Quetta Int'l","abbrev":"UET","location":"terminal","gps_code":"OPQT","iata_code":"UET","wikipedia":"http://en.wikipedia.org/wiki/Quetta_International_Airport","natlscale":8}},{"type":"Feature","geometry":{"type":"Point","coordinates":[60.900709,29.475294]},"properties":{"type":"mid","name":"Zahedan Int'l","abbrev":"ZAH","location":"terminal","gps_code":"OIZH","iata_code":"ZAH","wikipedia":"http://en.wikipedia.org/wiki/Zahedan_International_Airport","natlscale":8}},{"type":"Feature","geometry":{"type":"Point","coordinates":[112.711419,-7.92998]},"properties":{"type":"mid and military","name":"Abdul Rachman Saleh","abbrev":"MLG","location":"ramp","gps_code":"WARA","iata_code":"MLG","wikipedia":"http://en.wikipedia.org/wiki/Abdul_Rachman_Saleh_Airport","natlscale":8}},{"type":"Feature","geometry":{"type":"Point","coordinates":[83.550453,53.363385]},"properties":{"type":"mid","name":"Barnaul","abbrev":"BAX","location":"ramp","gps_code":"UNBB","iata_code":"BAX","wikipedia":"http://en.wikipedia.org/wiki/Barnaul_Airport","natlscale":8}},{"type":"Feature","geometry":{"type":"Point","coordinates":[79.452003,28.421809]},"properties":{"type":"military","name":"Bareilly","abbrev":"VIBY","location":"runway","gps_code":"VIBY","iata_code":null,"wikipedia":"http://en.wikipedia.org/wiki/Bareilly_Airport","natlscale":8}},{"type":"Feature","geometry":{"type":"Point","coordinates":[73.03205,33.561415]},"properties":{"type":"small","name":"Dhamial","abbrev":"OPQS","location":"runway","gps_code":"OPQS","iata_code":null,"wikipedia":"http://en.wikipedia.org/wiki/Dhamial_Army_Airbase","natlscale":8}},{"type":"Feature","geometry":{"type":"Point","coordinates":[127.495916,36.722023]},"properties":{"type":"major","name":"Cheongju Int'l","abbrev":"CJJ","location":"terminal","gps_code":"RKTU","iata_code":"CJJ","wikipedia":"http://en.wikipedia.org/wiki/Cheongju_International_Airport","natlscale":8}},{"type":"Feature","geometry":{"type":"Point","coordinates":[126.810839,35.140005]},"properties":{"type":"mid and military","name":"Gwangju","abbrev":"KWJ","location":"terminal","gps_code":"RKJJ","iata_code":"KWJ","wikipedia":"http://en.wikipedia.org/wiki/Gwangju_Airport","natlscale":8}},{"type":"Feature","geometry":{"type":"Point","coordinates":[128.637538,35.899928]},"properties":{"type":"mid","name":"Daegu Int'l","abbrev":"TAE","location":"terminal","gps_code":"RKTN","iata_code":"TAE","wikipedia":"http://en.wikipedia.org/wiki/Daegu_Airport","natlscale":8}},{"type":"Feature","geometry":{"type":"Point","coordinates":[129.355731,35.592896]},"properties":{"type":"mid","name":"Ulsan","abbrev":"USN","location":"terminal","gps_code":"RKPU","iata_code":"USN","wikipedia":"http://en.wikipedia.org/wiki/Ulsan_Airport","natlscale":8}},{"type":"Feature","geometry":{"type":"Point","coordinates":[105.17606,-5.242567]},"properties":{"type":"mid","name":"Radin Inten II","abbrev":"WIIT","location":"terminal","gps_code":"WIAT","iata_code":"TKG","wikipedia":"http://en.wikipedia.org/wiki/Radin_Inten_II_Airport","natlscale":8}},{"type":"Feature","geometry":{"type":"Point","coordinates":[81.731727,25.443522]},"properties":{"type":"military","name":"Allahabad","abbrev":"IXD","location":"ramp","gps_code":"VIAL","iata_code":"IXD","wikipedia":"http://en.wikipedia.org/wiki/Allahabad_Airport","natlscale":8}},{"type":"Feature","geometry":{"type":"Point","coordinates":[61.512259,55.297792]},"properties":{"type":"mid","name":"Chelyabinsk","abbrev":"CEK","location":"terminal","gps_code":"USCC","iata_code":"CEK","wikipedia":"http://en.wikipedia.org/wiki/Chelyabinsk_Airport","natlscale":8}},{"type":"Feature","geometry":{"type":"Point","coordinates":[120.209733,22.950668]},"properties":{"type":"military mid","name":"Tainan","abbrev":"TNN","location":"ramp","gps_code":"RCNN","iata_code":"TNN","wikipedia":"http://en.wikipedia.org/wiki/Tainan_Airport","natlscale":10}},{"type":"Feature","geometry":{"type":"Point","coordinates":[120.630704,24.266656]},"properties":{"type":"military mid","name":"Taichung","abbrev":"RMQ","location":"ramp","gps_code":"RCMQ","iata_code":"RMQ","wikipedia":"http://en.wikipedia.org/wiki/Taichung_Airport","natlscale":10}},{"type":"Feature","geometry":{"type":"Point","coordinates":[4.433844,51.94913]},"properties":{"type":"mid","name":"Rotterdam The Hague","abbrev":"RTM","location":"terminal","gps_code":"EHRD","iata_code":"RTM","wikipedia":"http://en.wikipedia.org/wiki/Rotterdam_The_Hague_Airport","natlscale":10}},{"type":"Feature","geometry":{"type":"Point","coordinates":[39.22545,51.812617]},"properties":{"type":"mid","name":"Voronezh-Chertovitskoye","abbrev":"VOZ","location":"terminal","gps_code":"UUOO","iata_code":"VOZ","wikipedia":"http://en.wikipedia.org/wiki/Voronezh_International_Airport","natlscale":10}},{"type":"Feature","geometry":{"type":"Point","coordinates":[-2.858621,53.336375]},"properties":{"type":"major","name":"Liverpool John Lennon","abbrev":"LPL","location":"ramp","gps_code":"EGGP","iata_code":"LPL","wikipedia":"http://en.wikipedia.org/wiki/Liverpool_John_Lennon_Airport","natlscale":10}},{"type":"Feature","geometry":{"type":"Point","coordinates":[119.545691,-5.058937]},"properties":{"type":"major","name":"Sultan Hasanuddin Int'l","abbrev":"UPG","location":"terminal","gps_code":"WAAA","iata_code":"UPG","wikipedia":"http://en.wikipedia.org/wiki/Sultan_Hasanuddin_International_Airport","natlscale":10}},{"type":"Feature","geometry":{"type":"Point","coordinates":[-173.968094,-18.586006]},"properties":{"type":"mid","name":"Vava'u Int'l","abbrev":"VAV","location":"terminal","gps_code":"NFTV","iata_code":"VAV","wikipedia":"http://en.wikipedia.org/wiki/Vava'u_International_Airport","natlscale":10}},{"type":"Feature","geometry":{"type":"Point","coordinates":[-1.710346,55.037085]},"properties":{"type":"major","name":"Newcastle Int'l","abbrev":"NCL","location":"terminal","gps_code":"EGNT","iata_code":"NCL","wikipedia":"http://en.wikipedia.org/wiki/Newcastle_Airport","natlscale":10}},{"type":"Feature","geometry":{"type":"Point","coordinates":[-86.851469,15.74516]},"properties":{"type":"mid","name":"Goloson Int'l","abbrev":"LCE","location":"terminal","gps_code":"MHLC","iata_code":"LCE","wikipedia":"http://en.wikipedia.org/wiki/Golos%C3%B3n_International_Airport","natlscale":10}},{"type":"Feature","geometry":{"type":"Point","coordinates":[39.699136,24.544234]},"properties":{"type":"major","name":"Madinah Int'l","abbrev":"MED","location":"terminal","gps_code":"OEMA","iata_code":"MED","wikipedia":"http://en.wikipedia.org/wiki/Prince_Mohammad_Bin_Abdulaziz_Airport","natlscale":10}},{"type":"Feature","geometry":{"type":"Point","coordinates":[22.478333,-5.900167]},"properties":{"type":"mid","name":"Kananga","abbrev":"KGA","location":"terminal","gps_code":"FZUA","iata_code":"KGA","wikipedia":"http://en.wikipedia.org/wiki/Kananga_Airport","natlscale":10}},{"type":"Feature","geometry":{"type":"Point","coordinates":[-74.028738,45.683225]},"properties":{"type":"mid","name":"Mirabel Int'l","abbrev":"YMX","location":"terminal","gps_code":"CYMX","iata_code":"YMX","wikipedia":"http://en.wikipedia.org/wiki/Montr%C3%A9al-Mirabel_International_Airport","natlscale":10}},{"type":"Feature","geometry":{"type":"Point","coordinates":[21.097446,55.971343]},"properties":{"type":"mid","name":"Palanga Int'l","abbrev":"PLQ","location":"terminal","gps_code":"EYPA","iata_code":"PLQ","wikipedia":"http://en.wikipedia.org/wiki/Palanga_International_Airport","natlscale":10}},{"type":"Feature","geometry":{"type":"Point","coordinates":[75.80101,26.82118]},"properties":{"type":"mid","name":"Jaipur Int'l","abbrev":"JAI","location":"terminal","gps_code":"VIJP","iata_code":"JAI","wikipedia":"http://en.wikipedia.org/wiki/Jaipur_International_Airport","natlscale":10}},{"type":"Feature","geometry":{"type":"Point","coordinates":[86.172466,22.815415]},"properties":{"type":"mid","name":"Sonari","abbrev":"IXW","location":"terminal","gps_code":"VEJS","iata_code":"IXW","wikipedia":"http://en.wikipedia.org/wiki/Sonari_Airport","natlscale":10}},{"type":"Feature","geometry":{"type":"Point","coordinates":[29.54492,40.25554]},"properties":{"type":"mid","name":"Yenisehir","abbrev":"YEI","location":"ramp","gps_code":"LTBR","iata_code":"YEI","wikipedia":"http://en.wikipedia.org/wiki/Yeni%C5%9Fehir_Airport","natlscale":10}},{"type":"Feature","geometry":{"type":"Point","coordinates":[35.296961,36.985209]},"properties":{"type":"major","name":"Sakirpasa","abbrev":"ADA","location":"terminal","gps_code":"LTAF","iata_code":"ADA","wikipedia":"http://en.wikipedia.org/wiki/Adana_%C5%9Eakirpa%C5%9Fa_Airport","natlscale":10}},{"type":"Feature","geometry":{"type":"Point","coordinates":[-152.485639,57.748592]},"properties":{"type":"mid","name":"Kodiak","abbrev":"ADQ","location":"ramp","gps_code":"PADQ","iata_code":"ADQ","wikipedia":"http://en.wikipedia.org/wiki/Kodiak_Airport","natlscale":10}},{"type":"Feature","geometry":{"type":"Point","coordinates":[-101.705353,35.218403]},"properties":{"type":"major","name":"Amarillo Int'l","abbrev":"AMA","location":"terminal","gps_code":"KAMA","iata_code":"AMA","wikipedia":"http://en.wikipedia.org/wiki/Rick_Husband_Amarillo_International_Airport","natlscale":10}},{"type":"Feature","geometry":{"type":"Point","coordinates":[133.902918,-23.801968]},"properties":{"type":"mid","name":"Alice Springs","abbrev":"ASP","location":"terminal","gps_code":"YBAS","iata_code":"ASP","wikipedia":"http://en.wikipedia.org/wiki/Alice_Springs_Airport","natlscale":10}},{"type":"Feature","geometry":{"type":"Point","coordinates":[74.807156,31.706822]},"properties":{"type":"mid and military","name":"Raja Sansi Int'l","abbrev":"ATQ","location":"terminal","gps_code":"VIAR","iata_code":"ATQ","wikipedia":"http://en.wikipedia.org/wiki/Raja_Sansi_International_Airport","natlscale":10}},{"type":"Feature","geometry":{"type":"Point","coordinates":[85.81689,20.252666]},"properties":{"type":"mid","name":"Biju Patnaik","abbrev":"BBI","location":"terminal","gps_code":"VEBS","iata_code":"BBI","wikipedia":"http://en.wikipedia.org/wiki/Biju_Patnaik_Airport","natlscale":10}},{"type":"Feature","geometry":{"type":"Point","coordinates":[-161.838987,60.778738]},"properties":{"type":"mid","name":"Bethel","abbrev":"BET","location":"runway","gps_code":"PABE","iata_code":"BET","wikipedia":"http://en.wikipedia.org/wiki/Bethel_Airport","natlscale":10}},{"type":"Feature","geometry":{"type":"Point","coordinates":[-73.180921,7.127709]},"properties":{"type":"mid","name":"Palonegro","abbrev":"BGA","location":"terminal","gps_code":"SKBG","iata_code":"BGA","wikipedia":"http://en.wikipedia.org/wiki/Palonegro_International_Airport","natlscale":10}},{"type":"Feature","geometry":{"type":"Point","coordinates":[141.470407,-31.998997]},"properties":{"type":"mid","name":"Broken Hill","abbrev":"BHQ","location":"terminal","gps_code":"YBHI","iata_code":"BHQ","wikipedia":"http://en.wikipedia.org/wiki/Broken_Hill_Airport","natlscale":10}},{"type":"Feature","geometry":{"type":"Point","coordinates":[-108.536929,45.803686]},"properties":{"type":"major","name":"Logan Int'l","abbrev":"BIL","location":"terminal","gps_code":"KBIL","iata_code":"BIL","wikipedia":"http://en.wikipedia.org/wiki/Billings_Logan_International_Airport","natlscale":10}},{"type":"Feature","geometry":{"type":"Point","coordinates":[-100.757471,46.775107]},"properties":{"type":"mid","name":"Bismarck Muni.","abbrev":"BIS","location":"terminal","gps_code":"KBIS","iata_code":"BIS","wikipedia":"http://en.wikipedia.org/wiki/Bismarck_Municipal_Airport","natlscale":10}},{"type":"Feature","geometry":{"type":"Point","coordinates":[-101.478753,20.985887]},"properties":{"type":"mid","name":"Del Bajio Int'l","abbrev":"BJX","location":"terminal","gps_code":"MMLO","iata_code":"BJX","wikipedia":"http://en.wikipedia.org/wiki/Del_Baj%C3%ADo_International_Airport","natlscale":10}},{"type":"Feature","geometry":{"type":"Point","coordinates":[5.603683,6.317167]},"properties":{"type":"mid","name":"Benin","abbrev":"BNI","location":"terminal","gps_code":"DNBE","iata_code":"BNI","wikipedia":"http://en.wikipedia.org/wiki/Benin_Airport","natlscale":10}},{"type":"Feature","geometry":{"type":"Point","coordinates":[27.516409,42.567084]},"properties":{"type":"major","name":"Bourgas","abbrev":"BOJ","location":"ramp","gps_code":"LBBG","iata_code":"BOJ","wikipedia":"http://en.wikipedia.org/wiki/Burgas_Airport","natlscale":10}},{"type":"Feature","geometry":{"type":"Point","coordinates":[8.785862,53.052287]},"properties":{"type":"major","name":"Bremen","abbrev":"BRE","location":"terminal","gps_code":"EDDW","iata_code":"BRE","wikipedia":"http://en.wikipedia.org/wiki/Bremen_Airport","natlscale":10}},{"type":"Feature","geometry":{"type":"Point","coordinates":[-69.356102,10.0453]},"properties":{"type":"mid","name":"Jacinto Lara Int'l","abbrev":"BRM","location":"terminal","gps_code":"SVBM","iata_code":"BRM","wikipedia":"http://en.wikipedia.org/wiki/Jacinto_Lara_International_Airport","natlscale":10}},{"type":"Feature","geometry":{"type":"Point","coordinates":[-97.431765,25.906274]},"properties":{"type":"mid","name":"Brownsville-South Padre Island Int'l","abbrev":"BRO","location":"terminal","gps_code":"KBRO","iata_code":"BRO","wikipedia":"http://en.wikipedia.org/wiki/Brownsville/South_Padre_Island_International_Airport","natlscale":10}},{"type":"Feature","geometry":{"type":"Point","coordinates":[-2.710865,51.386293]},"properties":{"type":"major","name":"Bristol Int'l","abbrev":"BRS","location":"terminal","gps_code":"EGGD","iata_code":"BRS","wikipedia":"http://en.wikipedia.org/wiki/Bristol_International_Airport","natlscale":10}},{"type":"Feature","geometry":{"type":"Point","coordinates":[-91.156754,30.532614]},"properties":{"type":"major","name":"Baton Rouge Metro","abbrev":"BTR","location":"terminal","gps_code":"KBTR","iata_code":"BTR","wikipedia":"http://en.wikipedia.org/wiki/Baton_Rouge_Metropolitan_Airport","natlscale":10}},{"type":"Feature","geometry":{"type":"Point","coordinates":[17.199985,48.169838]},"properties":{"type":"major","name":"Bratislava-M.R. Stefanik","abbrev":"BTS","location":"terminal","gps_code":"LZIB","iata_code":"BTS","wikipedia":"http://en.wikipedia.org/wiki/M._R._%C5%A0tef%C3%A1nik_Airport","natlscale":10}},{"type":"Feature","geometry":{"type":"Point","coordinates":[-73.155079,44.469207]},"properties":{"type":"mid","name":"Burlington Int'l","abbrev":"BTV","location":"terminal","gps_code":"KBTV","iata_code":"BTV","wikipedia":"http://en.wikipedia.org/wiki/Burlington_International_Airport","natlscale":10}},{"type":"Feature","geometry":{"type":"Point","coordinates":[-81.109335,33.934205]},"properties":{"type":"major","name":"Columbia Metro","abbrev":"CAE","location":"terminal","gps_code":"KCAE","iata_code":"CAE","wikipedia":"http://en.wikipedia.org/wiki/Columbia_Metropolitan_Airport","natlscale":10}},{"type":"Feature","geometry":{"type":"Point","coordinates":[75.950993,11.139552]},"properties":{"type":"major","name":"Calicut Int'l","abbrev":"CCJ","location":"terminal","gps_code":"VOCL","iata_code":"CCJ","wikipedia":"http://en.wikipedia.org/wiki/Calicut_International_Airport","natlscale":10}},{"type":"Feature","geometry":{"type":"Point","coordinates":[96.828747,-12.185159]},"properties":{"type":"mid","name":"Cocos (Keeling) Islands","abbrev":"CCK","location":"terminal","gps_code":"YPCC","iata_code":"CCK","wikipedia":"http://en.wikipedia.org/wiki/Cocos_(Keeling)_Islands_Airport","natlscale":10}},{"type":"Feature","geometry":{"type":"Point","coordinates":[19.914756,39.606755]},"properties":{"type":"mid","name":"Corfu Int'l (Ioannis Kapodistrias)","abbrev":"CFU","location":"terminal","gps_code":"LGKR","iata_code":"CFU","wikipedia":"http://en.wikipedia.org/wiki/Corfu_International_Airport","natlscale":10}},{"type":"Feature","geometry":{"type":"Point","coordinates":[-5.346772,36.151275]},"properties":{"type":"mid","name":"Gibraltar","abbrev":"GIB","location":"runway","gps_code":"LXGB","iata_code":"GIB","wikipedia":"http://en.wikipedia.org/wiki/Gibraltar_Airport","natlscale":10}},{"type":"Feature","geometry":{"type":"Point","coordinates":[125.690457,43.993011]},"properties":{"type":"major","name":"Changchun Longjia Int'l","abbrev":"CGQ","location":"terminal","gps_code":"ZYCC","iata_code":"CGQ","wikipedia":"http://en.wikipedia.org/wiki/Changchun_Longjia_International_Airport","natlscale":10}},{"type":"Feature","geometry":{"type":"Point","coordinates":[-80.036934,32.88453]},"properties":{"type":"major and military","name":"Charleston Int'l","abbrev":"CHS","location":"terminal","gps_code":"KCHS","iata_code":"CHS","wikipedia":"http://en.wikipedia.org/wiki/Charleston_International_Airport","natlscale":10}},{"type":"Feature","geometry":{"type":"Point","coordinates":[23.686981,46.782663]},"properties":{"type":"mid","name":"Someseni","abbrev":"CLJ","location":"ramp","gps_code":"LRCL","iata_code":"CLJ","wikipedia":"http://en.wikipedia.org/wiki/Cluj-Napoca_International_Airport","natlscale":10}},{"type":"Feature","geometry":{"type":"Point","coordinates":[-77.845104,21.424704]},"properties":{"type":"mid","name":"Ignacio Agramonte","abbrev":"CMW","location":"terminal","gps_code":"MUCM","iata_code":"CMW","wikipedia":"http://en.wikipedia.org/wiki/Ignacio_Agramonte_International_Airport","natlscale":10}},{"type":"Feature","geometry":{"type":"Point","coordinates":[-106.464445,42.89719]},"properties":{"type":"major","name":"Casper/Natrona County Int'l","abbrev":"CPR","location":"terminal","gps_code":"KCPR","iata_code":"CPR","wikipedia":"http://en.wikipedia.org/wiki/Casper/Natrona_County_International_Airport","natlscale":10}},{"type":"Feature","geometry":{"type":"Point","coordinates":[120.55077,15.187642]},"properties":{"type":"major","name":"Clark Int'l","abbrev":"CRK","location":"ramp","gps_code":"RPLC","iata_code":"CRK","wikipedia":"http://en.wikipedia.org/wiki/Clark_International_Airport","natlscale":10}},{"type":"Feature","geometry":{"type":"Point","coordinates":[-81.596416,38.370591]},"properties":{"type":"major and military","name":"Yeager","abbrev":"CRW","location":"terminal","gps_code":"KCRW","iata_code":"CRW","wikipedia":"http://en.wikipedia.org/wiki/Yeager_Airport","natlscale":10}},{"type":"Feature","geometry":{"type":"Point","coordinates":[15.067461,37.470073]},"properties":{"type":"major","name":"Catania Fontanarossa","abbrev":"CTA","location":"terminal","gps_code":"LICC","iata_code":"CTA","wikipedia":"http://en.wikipedia.org/wiki/Catania-Fontanarossa_Airport","natlscale":10}},{"type":"Feature","geometry":{"type":"Point","coordinates":[-88.32426,18.506434]},"properties":{"type":"mid","name":"Chetumal Int'l","abbrev":"CTM","location":"terminal","gps_code":"MMCM","iata_code":"CTM","wikipedia":"http://en.wikipedia.org/wiki/Chetumal_International_Airport","natlscale":10}},{"type":"Feature","geometry":{"type":"Point","coordinates":[-3.339569,51.398622]},"properties":{"type":"major","name":"Cardiff","abbrev":"CWL","location":"terminal","gps_code":"EGFF","iata_code":"CWL","wikipedia":"http://en.wikipedia.org/wiki/Cardiff_Airport","natlscale":10}},{"type":"Feature","geometry":{"type":"Point","coordinates":[-79.879462,19.689865]},"properties":{"type":"mid","name":"Gerrard Smith","abbrev":"CYB","location":"terminal","gps_code":"MWCB","iata_code":"CYB","wikipedia":"http://en.wikipedia.org/wiki/Gerrard_Smith_International_Airport","natlscale":10}},{"type":"Feature","geometry":{"type":"Point","coordinates":[-86.930406,20.511554]},"properties":{"type":"mid","name":"Cozumel Int'l","abbrev":"CZM","location":"terminal","gps_code":"MMCZ","iata_code":"CZM","wikipedia":"http://en.wikipedia.org/wiki/Cozumel_International_Airport","natlscale":10}},{"type":"Feature","geometry":{"type":"Point","coordinates":[-84.220459,39.89904]},"properties":{"type":"major","name":"James M. Cox Dayton Int'l","abbrev":"DAY","location":"terminal","gps_code":"KDAY","iata_code":"DAY","wikipedia":"http://en.wikipedia.org/wiki/Dayton_International_Airport","natlscale":10}},{"type":"Feature","geometry":{"type":"Point","coordinates":[148.569717,-32.218681]},"properties":{"type":"mid","name":"Dubbo","abbrev":"DBO","location":"approximate","gps_code":"YSDU","iata_code":"DBO","wikipedia":"http://en.wikipedia.org/wiki/Dubbo_Airport","natlscale":10}},{"type":"Feature","geometry":{"type":"Point","coordinates":[-77.043337,38.853716]},"properties":{"type":"major","name":"Washington Nat'l","abbrev":"DCA","location":"terminal","gps_code":"KDCA","iata_code":"DCA","wikipedia":"http://en.wikipedia.org/wiki/Ronald_Reagan_Washington_National_Airport","natlscale":10}},{"type":"Feature","geometry":{"type":"Point","coordinates":[-104.533846,24.126195]},"properties":{"type":"mid","name":"Durango Int'l","abbrev":"DGO","location":"terminal","gps_code":"MMDO","iata_code":"DGO","wikipedia":"http://en.wikipedia.org/wiki/General_Guadalupe_Victoria_International_Airport","natlscale":10}},{"type":"Feature","geometry":{"type":"Point","coordinates":[35.093906,48.367572]},"properties":{"type":"mid","name":"Voloskoye","abbrev":"DNK","location":"terminal","gps_code":"UKDD","iata_code":"DNK","wikipedia":"http://en.wikipedia.org/wiki/Dnipropetrovsk_International_Airport","natlscale":10}},{"type":"Feature","geometry":{"type":"Point","coordinates":[37.744809,48.069167]},"properties":{"type":"major","name":"Donetsk","abbrev":"DOK","location":"terminal","gps_code":"UKCC","iata_code":"DOK","wikipedia":"http://en.wikipedia.org/wiki/Donetsk_International_Airport","natlscale":10}},{"type":"Feature","geometry":{"type":"Point","coordinates":[-56.499264,-33.359108]},"properties":{"type":"mid","name":"Santa Bernardina Int'l","abbrev":"DZO","location":"runway","gps_code":"SUDU","iata_code":"DZO","wikipedia":"http://en.wikipedia.org/wiki/Santa_Bernardina_International_Airport","natlscale":10}},{"type":"Feature","geometry":{"type":"Point","coordinates":[-3.364285,55.948554]},"properties":{"type":"major","name":"Edinburgh Int'l","abbrev":"EDI","location":"terminal","gps_code":"EGPH","iata_code":"EDI","wikipedia":"http://en.wikipedia.org/wiki/Edinburgh_Airport","natlscale":10}},{"type":"Feature","geometry":{"type":"Point","coordinates":[-64.537151,18.444362]},"properties":{"type":"mid","name":"Terrance B. Lettsome Int'l","abbrev":"EIS","location":"terminal","gps_code":"TUPJ","iata_code":"EIS","wikipedia":"http://en.wikipedia.org/wiki/Terrance_B._Lettsome_International_Airport","natlscale":10}},{"type":"Feature","geometry":{"type":"Point","coordinates":[-115.786479,40.827606]},"properties":{"type":"mid","name":"Elko Reg.","abbrev":"EKO","location":"terminal","gps_code":"KEKO","iata_code":"EKO","wikipedia":"http://en.wikipedia.org/wiki/Elko_Regional_Airport","natlscale":10}},{"type":"Feature","geometry":{"type":"Point","coordinates":[-116.595724,31.797714]},"properties":{"type":"mid","name":"Ensenada","abbrev":"ESE","location":"ramp","gps_code":"MMES","iata_code":"ESE","wikipedia":"http://en.wikipedia.org/wiki/Ensenada_Airport","natlscale":10}},{"type":"Feature","geometry":{"type":"Point","coordinates":[-7.2708,62.0625]},"properties":{"type":"mid","name":"Vagar","abbrev":"FAE","location":"approximate","gps_code":"EKVG","iata_code":"FAE","wikipedia":"http://en.wikipedia.org/wiki/V%C3%A1gar_Airport","natlscale":10}},{"type":"Feature","geometry":{"type":"Point","coordinates":[-96.825456,46.919818]},"properties":{"type":"mid and military","name":"Hector Int'l","abbrev":"FAR","location":"terminal","gps_code":"KFAR","iata_code":"FAR","wikipedia":"http://en.wikipedia.org/wiki/Hector_International_Airport","natlscale":10}},{"type":"Feature","geometry":{"type":"Point","coordinates":[-119.720001,36.769813]},"properties":{"type":"mid","name":"Fresno Yosemite Int'l","abbrev":"FAT","location":"terminal","gps_code":"KFAT","iata_code":"FAT","wikipedia":"http://en.wikipedia.org/wiki/Fresno_Yosemite_International_Airport","natlscale":10}},{"type":"Feature","geometry":{"type":"Point","coordinates":[-111.674656,35.138912]},"properties":{"type":"mid","name":"Flagstaff Pulliam","abbrev":"FLG","location":"terminal","gps_code":"KFLG","iata_code":"FLG","wikipedia":"http://en.wikipedia.org/wiki/Flagstaff_Pulliam_Airport","natlscale":10}},{"type":"Feature","geometry":{"type":"Point","coordinates":[-89.87784,16.914974]},"properties":{"type":"mid","name":"Mundo Maya Int'l","abbrev":"FRS","location":"terminal","gps_code":"MGTK","iata_code":"FRS","wikipedia":"http://en.wikipedia.org/wiki/Mundo_Maya_International_Airport","natlscale":10}},{"type":"Feature","geometry":{"type":"Point","coordinates":[-96.731383,43.580193]},"properties":{"type":"mid","name":"Sioux Falls Reg.","abbrev":"FSD","location":"terminal","gps_code":"KFSD","iata_code":"FSD","wikipedia":"http://en.wikipedia.org/wiki/Sioux_Falls_Regional_Airport","natlscale":10}},{"type":"Feature","geometry":{"type":"Point","coordinates":[-117.536837,47.625478]},"properties":{"type":"major","name":"Spokane Int'l","abbrev":"GEG","location":"terminal","gps_code":"KGEG","iata_code":"GEG","wikipedia":"http://en.wikipedia.org/wiki/Spokane_International_Airport","natlscale":10}},{"type":"Feature","geometry":{"type":"Point","coordinates":[-75.872613,23.563883]},"properties":{"type":"mid","name":"Exuma Int'l","abbrev":"GGT","location":"terminal","gps_code":"MYEF","iata_code":"GGT","wikipedia":"http://en.wikipedia.org/wiki/Exuma_International_Airport","natlscale":10}},{"type":"Feature","geometry":{"type":"Point","coordinates":[-85.529573,42.884778]},"properties":{"type":"mid","name":"Gerald R. Ford Int'l","abbrev":"GRR","location":"terminal","gps_code":"KGRR","iata_code":"GRR","wikipedia":"http://en.wikipedia.org/wiki/Gerald_R._Ford_International_Airport","natlscale":10}},{"type":"Feature","geometry":{"type":"Point","coordinates":[-79.936487,36.105378]},"properties":{"type":"major","name":"Triad Int'l","abbrev":"GSO","location":"terminal","gps_code":"KGSO","iata_code":"GSO","wikipedia":"http://en.wikipedia.org/wiki/Piedmont_Triad_International_Airport","natlscale":10}},{"type":"Feature","geometry":{"type":"Point","coordinates":[-111.356685,47.482271]},"properties":{"type":"mid","name":"Great Falls Int'l","abbrev":"GTF","location":"terminal","gps_code":"KGTF","iata_code":"GTF","wikipedia":"http://en.wikipedia.org/wiki/Great_Falls_International_Airport","natlscale":10}},{"type":"Feature","geometry":{"type":"Point","coordinates":[37.473803,36.945363]},"properties":{"type":"major","name":"Gaziantep Oguzeli Int'l","abbrev":"GZT","location":"terminal","gps_code":"LTAJ","iata_code":"GZT","wikipedia":"http://en.wikipedia.org/wiki/O%C4%9Fuzeli_Airport","natlscale":10}},{"type":"Feature","geometry":{"type":"Point","coordinates":[75.086316,15.359183]},"properties":{"type":"mid","name":"Hubli","abbrev":"HBX","location":"terminal","gps_code":"VAHB","iata_code":"HBX","wikipedia":"http://en.wikipedia.org/wiki/Hubli_Airport","natlscale":10}},{"type":"Feature","geometry":{"type":"Point","coordinates":[100.393751,6.936342]},"properties":{"type":"mid","name":"Hat Yai Int'l","abbrev":"HDY","location":"terminal","gps_code":"VTSS","iata_code":"HDY","wikipedia":"http://en.wikipedia.org/wiki/Hat_Yai_International_Airport","natlscale":10}},{"type":"Feature","geometry":{"type":"Point","coordinates":[117.304197,31.779858]},"properties":{"type":"mid","name":"Hefei-Luogang","abbrev":"HFE","location":"ramp","gps_code":"ZSOF","iata_code":"HFE","wikipedia":"http://en.wikipedia.org/wiki/Hefei_Luogang_International_Airport","natlscale":10}},{"type":"Feature","geometry":{"type":"Point","coordinates":[33.807161,27.180426]},"properties":{"type":"major","name":"Hurghada Int'l","abbrev":"HRG","location":"terminal","gps_code":"HEGN","iata_code":"HRG","wikipedia":"http://en.wikipedia.org/wiki/Hurghada_International_Airport","natlscale":10}},{"type":"Feature","geometry":{"type":"Point","coordinates":[36.282201,49.921536]},"properties":{"type":"major","name":"Kharkov Int'l","abbrev":"HRK","location":"ramp","gps_code":"UKHH","iata_code":"HRK","wikipedia":"http://en.wikipedia.org/wiki/Kharkiv_International_Airport","natlscale":10}},{"type":"Feature","geometry":{"type":"Point","coordinates":[-86.774943,34.648334]},"properties":{"type":"major","name":"Huntsville Int'l","abbrev":"HSV","location":"terminal","gps_code":"KHSV","iata_code":"HSV","wikipedia":"http://en.wikipedia.org/wiki/Huntsville_International_Airport","natlscale":10}},{"type":"Feature","geometry":{"type":"Point","coordinates":[3.973813,7.360344]},"properties":{"type":"mid","name":"Ibadan","abbrev":"IBA","location":"ramp","gps_code":"DNIB","iata_code":"IBA","wikipedia":"http://en.wikipedia.org/wiki/Ibadan_Airport","natlscale":10}},{"type":"Feature","geometry":{"type":"Point","coordinates":[-77.910376,34.266784]},"properties":{"type":"mid","name":"Wilmington Int'l","abbrev":"ILM","location":"terminal","gps_code":"KILM","iata_code":"ILM","wikipedia":"http://en.wikipedia.org/wiki/Wilmington_International_Airport","natlscale":10}},{"type":"Feature","geometry":{"type":"Point","coordinates":[4.49484,8.435377]},"properties":{"type":"mid","name":"Ilorin Int'l","abbrev":"ILR","location":"terminal","gps_code":"DNIL","iata_code":"ILR","wikipedia":"http://en.wikipedia.org/wiki/Ilorin_International_Airport","natlscale":10}},{"type":"Feature","geometry":{"type":"Point","coordinates":[-93.398003,48.565993]},"properties":{"type":"mid","name":"Falls Int'l","abbrev":"INL","location":"terminal","gps_code":"KINL","iata_code":"INL","wikipedia":"http://en.wikipedia.org/wiki/Falls_International_Airport","natlscale":10}},{"type":"Feature","geometry":{"type":"Point","coordinates":[-4.063592,57.5395]},"properties":{"type":"mid","name":"Inverness","abbrev":"INV","location":"terminal","gps_code":"EGPE","iata_code":"INV","wikipedia":"http://en.wikipedia.org/wiki/Inverness_Airport","natlscale":10}},{"type":"Feature","geometry":{"type":"Point","coordinates":[-115.571996,32.833959]},"properties":{"type":"mid","name":"Imperial Cty.","abbrev":"IPL","location":"terminal","gps_code":"KIPL","iata_code":"IPL","wikipedia":"http://en.wikipedia.org/wiki/Imperial_County_Airport","natlscale":10}},{"type":"Feature","geometry":{"type":"Point","coordinates":[74.842308,32.681043]},"properties":{"type":"mid","name":"Jammu","abbrev":"IXJ","location":"terminal","gps_code":"VIJU","iata_code":"IXJ","wikipedia":"http://en.wikipedia.org/wiki/Jammu_Airport","natlscale":10}},{"type":"Feature","geometry":{"type":"Point","coordinates":[78.091139,9.837186]},"properties":{"type":"mid","name":"Madurai","abbrev":"IXM","location":"terminal","gps_code":"VOMD","iata_code":"IXM","wikipedia":"http://en.wikipedia.org/wiki/Madurai_Airport","natlscale":10}},{"type":"Feature","geometry":{"type":"Point","coordinates":[73.050549,26.263762]},"properties":{"type":"major and military","name":"Jodhpur","abbrev":"JDH","location":"terminal","gps_code":"VIJO","iata_code":"JDH","wikipedia":"http://en.wikipedia.org/wiki/Jodhpur_Airport","natlscale":10}},{"type":"Feature","geometry":{"type":"Point","coordinates":[80.058744,23.184533]},"properties":{"type":"mid","name":"Jabalpur","abbrev":"JLR","location":"terminal","gps_code":"VAJB","iata_code":"JLR","wikipedia":"http://en.wikipedia.org/wiki/Jabalpur_Airport","natlscale":10}},{"type":"Feature","geometry":{"type":"Point","coordinates":[37.06519,-3.424445]},"properties":{"type":"mid","name":"Kilimanjaro Int'l","abbrev":"JRO","location":"terminal","gps_code":"HTKJ","iata_code":"JRO","wikipedia":"http://en.wikipedia.org/wiki/Kilimanjaro_International_Airport","natlscale":10}},{"type":"Feature","geometry":{"type":"Point","coordinates":[7.325253,10.694619]},"properties":{"type":"mid","name":"Kaduna","abbrev":"KAD","location":"terminal","gps_code":"DNKA","iata_code":"KAD","wikipedia":"http://en.wikipedia.org/wiki/Kaduna_Airport","natlscale":10}},{"type":"Feature","geometry":{"type":"Point","coordinates":[-1.592575,6.714606]},"properties":{"type":"mid","name":"Kumasi","abbrev":"KMS","location":"terminal","gps_code":"DGSI","iata_code":"KMS","wikipedia":"http://en.wikipedia.org/wiki/Kumasi_Airport","natlscale":10}},{"type":"Feature","geometry":{"type":"Point","coordinates":[-71.480603,-32.948392]},"properties":{"type":"mid","name":"Vina del Mar","abbrev":"KNA","location":"ramp","gps_code":"SCVM","iata_code":"KNA","wikipedia":"http://en.wikipedia.org/wiki/Vi%C3%B1a_del_Mar_Airport","natlscale":10}},{"type":"Feature","geometry":{"type":"Point","coordinates":[80.367534,26.438833]},"properties":{"type":"mid","name":"Kanpur","abbrev":"KNU","location":"terminal","gps_code":"VIKA","iata_code":"KNU","wikipedia":"http://en.wikipedia.org/wiki/Kanpur_Airport","natlscale":10}},{"type":"Feature","geometry":{"type":"Point","coordinates":[-156.040889,19.737099]},"properties":{"type":"mid","name":"Kona Int'l at Keahole","abbrev":"KOA","location":"terminal","gps_code":"PHKO","iata_code":"KOA","wikipedia":"http://en.wikipedia.org/wiki/Kona_International_Airport","natlscale":10}},{"type":"Feature","geometry":{"type":"Point","coordinates":[-2.901378,58.954429]},"properties":{"type":"mid","name":"Kirkwall","abbrev":"KOI","location":"ramp","gps_code":"EGPA","iata_code":"KOI","wikipedia":"http://en.wikipedia.org/wiki/Kirkwall_Airport","natlscale":10}},{"type":"Feature","geometry":{"type":"Point","coordinates":[75.850498,25.163419]},"properties":{"type":"mid","name":"Kota","abbrev":"KTU","location":"terminal","gps_code":"VIKO","iata_code":"KTU","wikipedia":"http://en.wikipedia.org/wiki/Kota_Airport","natlscale":10}},{"type":"Feature","geometry":{"type":"Point","coordinates":[32.575673,37.983995]},"properties":{"type":"major and military","name":"Konya","abbrev":"KYA","location":"terminal","gps_code":"LTAN","iata_code":"KYA","wikipedia":"http://en.wikipedia.org/wiki/Konya_Airport","natlscale":10}},{"type":"Feature","geometry":{"type":"Point","coordinates":[-84.598268,38.037427]},"properties":{"type":"major","name":"Blue Grass","abbrev":"LEX","location":"terminal","gps_code":"KLEX","iata_code":"LEX","wikipedia":"http://en.wikipedia.org/wiki/Blue_Grass_Airport","natlscale":10}},{"type":"Feature","geometry":{"type":"Point","coordinates":[-159.349084,21.978124]},"properties":{"type":"mid","name":"Lihue","abbrev":"LIH","location":"terminal","gps_code":"PHLI","iata_code":"LIH","wikipedia":"http://en.wikipedia.org/wiki/Lihu'e_Airport","natlscale":10}},{"type":"Feature","geometry":{"type":"Point","coordinates":[25.372837,64.928799]},"properties":{"type":"mid","name":"Oulu","abbrev":"OUL","location":"terminal","gps_code":"EFOU","iata_code":"OUL","wikipedia":"http://en.wikipedia.org/wiki/Oulu_Airport","natlscale":10}},{"type":"Feature","geometry":{"type":"Point","coordinates":[-92.220588,34.72843]},"properties":{"type":"major","name":"Little Rock National","abbrev":"LIT","location":"terminal","gps_code":"KLIT","iata_code":"LIT","wikipedia":"http://en.wikipedia.org/wiki/Little_Rock_National_Airport","natlscale":10}},{"type":"Feature","geometry":{"type":"Point","coordinates":[-109.082695,25.688509]},"properties":{"type":"mid","name":"Los Mochis","abbrev":"LMM","location":"ramp","gps_code":"MMLM","iata_code":"LMM","wikipedia":"http://en.wikipedia.org/wiki/Federal_del_Valle_del_Fuerte_International_Airport","natlscale":10}},{"type":"Feature","geometry":{"type":"Point","coordinates":[-101.46496,26.955393]},"properties":{"type":"mid","name":"Venustiano Carranza Int'l","abbrev":"LOV","location":"runway","gps_code":"MMMV","iata_code":"LOV","wikipedia":"http://en.wikipedia.org/wiki/Venustiano_Carranza_International_Airport","natlscale":10}},{"type":"Feature","geometry":{"type":"Point","coordinates":[-99.45566,27.543666]},"properties":{"type":"mid","name":"Laredo Int'l","abbrev":"LRD","location":"terminal","gps_code":"KLRD","iata_code":"LRD","wikipedia":"http://en.wikipedia.org/wiki/Laredo_International_Airport","natlscale":10}},{"type":"Feature","geometry":{"type":"Point","coordinates":[-1.288061,59.87669]},"properties":{"type":"mid","name":"Sumburgh","abbrev":"LSI","location":"runway","gps_code":"EGPB","iata_code":"LSI","wikipedia":"http://en.wikipedia.org/wiki/Sumburgh_Airport","natlscale":10}},{"type":"Feature","geometry":{"type":"Point","coordinates":[35.944241,35.407311]},"properties":{"type":"major","name":"Bassel Al-Assad Int'l","abbrev":"LTK","location":"terminal","gps_code":"OSLK","iata_code":"LTK","wikipedia":"http://en.wikipedia.org/wiki/Bassel_Al-Assad_International_Airport","natlscale":10}},{"type":"Feature","geometry":{"type":"Point","coordinates":[-0.376227,51.880295]},"properties":{"type":"major","name":"London Luton","abbrev":"LTN","location":"terminal","gps_code":"EGGW","iata_code":"LTN","wikipedia":"http://en.wikipedia.org/wiki/London_Luton_Airport","natlscale":10}},{"type":"Feature","geometry":{"type":"Point","coordinates":[15.495229,78.246717]},"properties":{"type":"mid","name":"Svalbard Longyear","abbrev":"LYR","location":"terminal","gps_code":"ENSB","iata_code":"LYR","wikipedia":"http://en.wikipedia.org/wiki/Svalbard_Airport%2C_Longyear","natlscale":10}},{"type":"Feature","geometry":{"type":"Point","coordinates":[-77.918391,18.501155]},"properties":{"type":"mid","name":"Sangster Int'l","abbrev":"MBJ","location":"runway","gps_code":"MKJS","iata_code":"MBJ","wikipedia":"http://en.wikipedia.org/wiki/Sangster_International_Airport","natlscale":10}},{"type":"Feature","geometry":{"type":"Point","coordinates":[95.970654,21.705549]},"properties":{"type":"mid","name":"Mandalay Int'l","abbrev":"MDL","location":"terminal","gps_code":"VYMD","iata_code":"MDL","wikipedia":"http://en.wikipedia.org/wiki/Mandalay_International_Airport","natlscale":10}},{"type":"Feature","geometry":{"type":"Point","coordinates":[-87.742127,41.788349]},"properties":{"type":"major","name":"Chicago Midway Int'l","abbrev":"MDW","location":"terminal","gps_code":"KMDW","iata_code":"MDW","wikipedia":"http://en.wikipedia.org/wiki/Chicago_Midway_International_Airport","natlscale":10}},{"type":"Feature","geometry":{"type":"Point","coordinates":[-80.683385,-0.949557]},"properties":{"type":"mid and military","name":"Eloy Alfaro Int'l","abbrev":"MEC","location":"runway","gps_code":"SEMT","iata_code":"MEC","wikipedia":"http://en.wikipedia.org/wiki/Manta_Air_Base","natlscale":10}},{"type":"Feature","geometry":{"type":"Point","coordinates":[-86.390307,32.304588]},"properties":{"type":"major","name":"Montgomery Reg.","abbrev":"MGM","location":"terminal","gps_code":"KMGM","iata_code":"MGM","wikipedia":"http://en.wikipedia.org/wiki/Montgomery_Regional_Airport","natlscale":10}},{"type":"Feature","geometry":{"type":"Point","coordinates":[-71.437524,42.927914]},"properties":{"type":"major","name":"Manchester-Boston Reg.","abbrev":"MHT","location":"terminal","gps_code":"KMHT","iata_code":"MHT","wikipedia":"http://en.wikipedia.org/wiki/Manchester-Boston_Regional_Airport","natlscale":10}},{"type":"Feature","geometry":{"type":"Point","coordinates":[13.085139,11.853471]},"properties":{"type":"mid","name":"Maiduguri Int'l","abbrev":"DNMA","location":"terminal","gps_code":"DNMA","iata_code":"MIU","wikipedia":"http://en.wikipedia.org/wiki/Maiduguri_International_Airport","natlscale":10}},{"type":"Feature","geometry":{"type":"Point","coordinates":[23.572109,-6.124845]},"properties":{"type":"mid","name":"Mbuji Mayi","abbrev":"MJM","location":"terminal","gps_code":"FZWA","iata_code":"MJM","wikipedia":"http://en.wikipedia.org/wiki/Mbuji_Mayi_Airport","natlscale":10}},{"type":"Feature","geometry":{"type":"Point","coordinates":[-101.291386,48.255605]},"properties":{"type":"mid","name":"Minot Int'l","abbrev":"MOT","location":"terminal","gps_code":"KMOT","iata_code":"MOT","wikipedia":"http://en.wikipedia.org/wiki/Minot_International_Airport","natlscale":10}},{"type":"Feature","geometry":{"type":"Point","coordinates":[-114.083695,46.91876]},"properties":{"type":"mid","name":"Missoula Int'l","abbrev":"MSO","location":"terminal","gps_code":"KMSO","iata_code":"MSO","wikipedia":"http://en.wikipedia.org/wiki/Missoula_International_Airport","natlscale":10}},{"type":"Feature","geometry":{"type":"Point","coordinates":[-115.247874,32.628564]},"properties":{"type":"mid","name":"Gen R.S. Taboada Int'l","abbrev":"MXL","location":"terminal","gps_code":"MMML","iata_code":"MXL","wikipedia":"http://en.wikipedia.org/wiki/General_Rodolfo_S%C3%A1nchez_Taboada_International_Airport","natlscale":10}},{"type":"Feature","geometry":{"type":"Point","coordinates":[8.71296,45.627441]},"properties":{"type":"major","name":"Malpensa","abbrev":"MXP","location":"terminal","gps_code":"LIMC","iata_code":"MXP","wikipedia":"http://en.wikipedia.org/wiki/Malpensa_Airport","natlscale":10}},{"type":"Feature","geometry":{"type":"Point","coordinates":[167.943394,-29.035159]},"properties":{"type":"mid","name":"Norfolk Island","abbrev":"NLK","location":"terminal","gps_code":"YSNF","iata_code":"NLK","wikipedia":"http://en.wikipedia.org/wiki/Norfolk_Island_Airport","natlscale":10}},{"type":"Feature","geometry":{"type":"Point","coordinates":[11.077418,49.494505]},"properties":{"type":"major","name":"Nurnberg","abbrev":"NUE","location":"terminal","gps_code":"EDDN","iata_code":"NUE","wikipedia":"http://en.wikipedia.org/wiki/Nuremberg_Airport","natlscale":10}},{"type":"Feature","geometry":{"type":"Point","coordinates":[30.676831,46.440627]},"properties":{"type":"major","name":"Odessa Int'l","abbrev":"ODS","location":"terminal","gps_code":"UKOO","iata_code":"ODS","wikipedia":"http://en.wikipedia.org/wiki/Odessa_International_Airport","natlscale":10}},{"type":"Feature","geometry":{"type":"Point","coordinates":[153.512876,-28.166517]},"properties":{"type":"mid","name":"Gold Coast","abbrev":"OOL","location":"terminal","gps_code":"YBCG","iata_code":"OOL","wikipedia":"http://en.wikipedia.org/wiki/Gold_Coast_Airport","natlscale":10}},{"type":"Feature","geometry":{"type":"Point","coordinates":[-0.606797,35.620275]},"properties":{"type":"mid","name":"Oran Es Senia","abbrev":"ORN","location":"terminal","gps_code":"DAOO","iata_code":"ORN","wikipedia":"http://en.wikipedia.org/wiki/Oran_Es_S%C3%A9nia_Airport","natlscale":10}},{"type":"Feature","geometry":{"type":"Point","coordinates":[85.090902,25.594443]},"properties":{"type":"mid","name":"Lok Nayak Jaiprakash","abbrev":"PAT","location":"terminal","gps_code":"VEPT","iata_code":"PAT","wikipedia":"http://en.wikipedia.org/wiki/Lok_Nayak_Jayaprakash_Airport","natlscale":10}},{"type":"Feature","geometry":{"type":"Point","coordinates":[-58.068535,-32.361455]},"properties":{"type":"mid","name":"Paysandu","abbrev":"PDU","location":"terminal","gps_code":"SUPU","iata_code":"PDU","wikipedia":"http://en.wikipedia.org/wiki/Paysand%C3%BA_Airport","natlscale":10}},{"type":"Feature","geometry":{"type":"Point","coordinates":[32.483232,34.713401]},"properties":{"type":"major","name":"Paphos Int'l","abbrev":"PFO","location":"ramp","gps_code":"LCPH","iata_code":"PFO","wikipedia":"http://en.wikipedia.org/wiki/Paphos_International_Airport","natlscale":10}},{"type":"Feature","geometry":{"type":"Point","coordinates":[104.699128,-2.899993]},"properties":{"type":"mid","name":"Sultan Mahmud Badaruddin II","abbrev":"PLM","location":"terminal","gps_code":"WIPP","iata_code":"PLM","wikipedia":"http://en.wikipedia.org/wiki/Sultan_Mahmud_Badaruddin_II_Airport","natlscale":10}},{"type":"Feature","geometry":{"type":"Point","coordinates":[29.45334,-23.858986]},"properties":{"type":"mid","name":"Polokwane Int'l","abbrev":"PTG","location":"terminal","gps_code":"FAPP","iata_code":"PTG","wikipedia":"http://en.wikipedia.org/wiki/Polokwane_International_Airport","natlscale":10}},{"type":"Feature","geometry":{"type":"Point","coordinates":[-68.363235,18.563039]},"properties":{"type":"mid","name":"Punta Cana","abbrev":"PUJ","location":"terminal","gps_code":"MDPC","iata_code":"PUJ","wikipedia":"http://en.wikipedia.org/wiki/Punta_Cana_International_Airport","natlscale":10}},{"type":"Feature","geometry":{"type":"Point","coordinates":[-100.187359,20.622466]},"properties":{"type":"mid","name":"Queretaro Int'l","abbrev":"QRO","location":"terminal","gps_code":"MMQT","iata_code":"QRO","wikipedia":"http://en.wikipedia.org/wiki/Quer%C3%A9taro_International_Airport","natlscale":10}},{"type":"Feature","geometry":{"type":"Point","coordinates":[70.779955,22.309282]},"properties":{"type":"mid","name":"Rajkot","abbrev":"RAJ","location":"runway","gps_code":"VARK","iata_code":"RAJ","wikipedia":"http://en.wikipedia.org/wiki/Rajkot_Airport","natlscale":10}},{"type":"Feature","geometry":{"type":"Point","coordinates":[-77.33312,37.50829]},"properties":{"type":"major","name":"Richmond Int'l","abbrev":"RIC","location":"terminal","gps_code":"KRIC","iata_code":"RIC","wikipedia":"http://en.wikipedia.org/wiki/Richmond_International_Airport","natlscale":10}},{"type":"Feature","geometry":{"type":"Point","coordinates":[88.613805,24.444807]},"properties":{"type":"mid","name":"Shah Makhdum","abbrev":"RJH","location":"terminal","gps_code":"VGRJ","iata_code":"RJH","wikipedia":"http://en.wikipedia.org/wiki/Shah_Makhdum_Airport","natlscale":10}},{"type":"Feature","geometry":{"type":"Point","coordinates":[-77.665245,43.127552]},"properties":{"type":"major","name":"Greater Rochester Int'l","abbrev":"ROC","location":"terminal","gps_code":"KROC","iata_code":"ROC","wikipedia":"http://en.wikipedia.org/wiki/Greater_Rochester_International_Airport","natlscale":10}},{"type":"Feature","geometry":{"type":"Point","coordinates":[150.478897,-23.378599]},"properties":{"type":"mid","name":"Rockhampton","abbrev":"ROK","location":"terminal","gps_code":"YBRK","iata_code":"ROK","wikipedia":"http://en.wikipedia.org/wiki/Rockhampton_Airport","natlscale":10}},{"type":"Feature","geometry":{"type":"Point","coordinates":[39.803514,47.255112]},"properties":{"type":"mid","name":"Rostov-on-Don","abbrev":"ROV","location":"terminal","gps_code":"URRR","iata_code":"ROV","wikipedia":"http://en.wikipedia.org/wiki/Rostov-on-Don_Airport","natlscale":10}},{"type":"Feature","geometry":{"type":"Point","coordinates":[46.035023,51.560646]},"properties":{"type":"mid","name":"Saratov","abbrev":"RTW","location":"ramp","gps_code":"UWSS","iata_code":"RTW","wikipedia":"http://en.wikipedia.org/wiki/Saratov_Tsentralny_Airport","natlscale":10}},{"type":"Feature","geometry":{"type":"Point","coordinates":[-87.927237,15.455863]},"properties":{"type":"mid","name":"Ramon Villeda Morales Int'l","abbrev":"SAP","location":"terminal","gps_code":"MHLM","iata_code":"SAP","wikipedia":"http://en.wikipedia.org/wiki/Ram%C3%B3n_Villeda_Morales_International_Airport","natlscale":10}},{"type":"Feature","geometry":{"type":"Point","coordinates":[-119.836602,34.425731]},"properties":{"type":"mid","name":"Santa Barbara Muni.","abbrev":"SBA","location":"terminal","gps_code":"KSBA","iata_code":"SBA","wikipedia":"http://en.wikipedia.org/wiki/Santa_Barbara_Airport","natlscale":10}},{"type":"Feature","geometry":{"type":"Point","coordinates":[-148.457855,70.19751]},"properties":{"type":"mid","name":"Deadhorse","abbrev":"SCC","location":"ramp","gps_code":"PASC","iata_code":"SCC","wikipedia":"http://en.wikipedia.org/wiki/Deadhorse_Airport","natlscale":10}},{"type":"Feature","geometry":{"type":"Point","coordinates":[-50.694199,67.018097]},"properties":{"type":"mid","name":"Kangerlussuaq","abbrev":"SFJ","location":"ramp","gps_code":"BGSF","iata_code":"SFJ","wikipedia":"http://en.wikipedia.org/wiki/Kangerlussuaq_Airport","natlscale":10}},{"type":"Feature","geometry":{"type":"Point","coordinates":[-93.382638,37.242144]},"properties":{"type":"major","name":"Springfield Reg.","abbrev":"SGF","location":"terminal","gps_code":"KSGF","iata_code":"SGF","wikipedia":"http://en.wikipedia.org/wiki/Springfield/Branson_National_Airport","natlscale":10}},{"type":"Feature","geometry":{"type":"Point","coordinates":[-93.828522,32.45458]},"properties":{"type":"major","name":"Shreveport Reg.","abbrev":"SHV","location":"terminal","gps_code":"KSHV","iata_code":"SHV","wikipedia":"http://en.wikipedia.org/wiki/Shreveport_Regional_Airport","natlscale":10}},{"type":"Feature","geometry":{"type":"Point","coordinates":[33.996053,45.020217]},"properties":{"type":"major","name":"Simferopol Int'l","abbrev":"SIP","location":"ramp","gps_code":"UKFF","iata_code":"SIP","wikipedia":"http://en.wikipedia.org/wiki/Simferopol_International_Airport","natlscale":10}},{"type":"Feature","geometry":{"type":"Point","coordinates":[-135.365692,57.05349]},"properties":{"type":"mid","name":"Sitka Rocky Gutierrez","abbrev":"SIT","location":"terminal","gps_code":"PASI","iata_code":"SIT","wikipedia":"http://en.wikipedia.org/wiki/Sitka_Rocky_Gutierrez_Airport","natlscale":10}},{"type":"Feature","geometry":{"type":"Point","coordinates":[-109.717858,23.162657]},"properties":{"type":"major","name":"Los Cabos Int'l","abbrev":"SJD","location":"terminal","gps_code":"MMSD","iata_code":"SJD","wikipedia":"http://en.wikipedia.org/wiki/Los_Cabos_International_Airport","natlscale":10}},{"type":"Feature","geometry":{"type":"Point","coordinates":[-123.007871,44.910514]},"properties":{"type":"major","name":"McNary Field","abbrev":"SLE","location":"terminal","gps_code":"KSLE","iata_code":"SLE","wikipedia":"http://en.wikipedia.org/wiki/McNary_Field","natlscale":10}},{"type":"Feature","geometry":{"type":"Point","coordinates":[-100.932261,25.547998]},"properties":{"type":"mid","name":"Plan de Guadalupe","abbrev":"SLW","location":"ramp","gps_code":"MMIO","iata_code":"SLW","wikipedia":"http://en.wikipedia.org/wiki/Plan_de_Guadalupe_International_Airport","natlscale":10}},{"type":"Feature","geometry":{"type":"Point","coordinates":[-8.922429,52.693454]},"properties":{"type":"major","name":"Shannon","abbrev":"SNN","location":"terminal","gps_code":"EINN","iata_code":"SNN","wikipedia":"http://en.wikipedia.org/wiki/Shannon_Airport","natlscale":10}},{"type":"Feature","geometry":{"type":"Point","coordinates":[167.220895,-15.505539]},"properties":{"type":"mid","name":"Santo Pekoa Int'l","abbrev":"SON","location":"runway","gps_code":"NVSS","iata_code":"SON","wikipedia":"http://en.wikipedia.org/wiki/Santo-Pekoa_International_Airport","natlscale":10}},{"type":"Feature","geometry":{"type":"Point","coordinates":[110.378556,-6.978735]},"properties":{"type":"mid","name":"Achmad Yani","abbrev":"SRG","location":"terminal","gps_code":"WARS","iata_code":"SRG","wikipedia":"http://en.wikipedia.org/wiki/Achmad_Yani_Airport","natlscale":10}},{"type":"Feature","geometry":{"type":"Point","coordinates":[74.782624,33.983091]},"properties":{"type":"military mid","name":"Srinagar","abbrev":"SXR","location":"ramp","gps_code":"VISR","iata_code":"SXR","wikipedia":"http://en.wikipedia.org/wiki/Srinagar_Airport","natlscale":10}},{"type":"Feature","geometry":{"type":"Point","coordinates":[-92.370003,14.791128]},"properties":{"type":"mid","name":"Tapachula Int'l","abbrev":"TAP","location":"ramp","gps_code":"MMTP","iata_code":"TAP","wikipedia":"http://en.wikipedia.org/wiki/Tapachula_International_Airport","natlscale":10}},{"type":"Feature","geometry":{"type":"Point","coordinates":[19.246687,42.367934]},"properties":{"type":"major","name":"Podgorica","abbrev":"TGD","location":"terminal","gps_code":"LYPG","iata_code":"TGD","wikipedia":"http://en.wikipedia.org/wiki/Podgorica_Airport","natlscale":10}},{"type":"Feature","geometry":{"type":"Point","coordinates":[-84.344995,30.395558]},"properties":{"type":"major","name":"Tallahassee Reg.","abbrev":"TLH","location":"terminal","gps_code":"KTLH","iata_code":"TLH","wikipedia":"http://en.wikipedia.org/wiki/Tallahassee_Regional_Airport","natlscale":10}},{"type":"Feature","geometry":{"type":"Point","coordinates":[7.644162,45.19166]},"properties":{"type":"major","name":"Turin Int'l","abbrev":"TRN","location":"terminal","gps_code":"LIMF","iata_code":"TRN","wikipedia":"http://en.wikipedia.org/wiki/Turin_International_Airport","natlscale":10}},{"type":"Feature","geometry":{"type":"Point","coordinates":[112.625892,37.754512]},"properties":{"type":"major","name":"Taiyuan Wusu Int'l","abbrev":"TYN","location":"terminal","gps_code":"ZBYN","iata_code":"TYN","wikipedia":"http://en.wikipedia.org/wiki/Taiyuan_Wusu_International_Airport","natlscale":10}},{"type":"Feature","geometry":{"type":"Point","coordinates":[-45.416401,61.162597]},"properties":{"type":"mid","name":"Narsarsuaq","abbrev":"UAK","location":"ramp","gps_code":"BGBW","iata_code":"UAK","wikipedia":"http://en.wikipedia.org/wiki/Narsarsuaq_Airport","natlscale":10}},{"type":"Feature","geometry":{"type":"Point","coordinates":[101.000209,12.685293]},"properties":{"type":"military mid","name":"Rayong","abbrev":"UTP","location":"ramp","gps_code":"VTBU","iata_code":"UTP","wikipedia":"http://en.wikipedia.org/wiki/U-Tapao_International_Airport","natlscale":10}},{"type":"Feature","geometry":{"type":"Point","coordinates":[25.846768,-18.099016]},"properties":{"type":"mid","name":"Victoria Falls","abbrev":"VFA","location":"runway","gps_code":"FVFA","iata_code":"VFA","wikipedia":"http://en.wikipedia.org/wiki/Victoria_Falls_Airport","natlscale":10}},{"type":"Feature","geometry":{"type":"Point","coordinates":[80.797308,16.528643]},"properties":{"type":"mid","name":"Vijaywada","abbrev":"VGA","location":"ramp","gps_code":"VOBZ","iata_code":"VGA","wikipedia":"http://en.wikipedia.org/wiki/Vijayawada_Airport","natlscale":10}},{"type":"Feature","geometry":{"type":"Point","coordinates":[82.853874,25.449908]},"properties":{"type":"mid","name":"Varanasi","abbrev":"VNS","location":"terminal","gps_code":"VIBN","iata_code":"VNS","wikipedia":"http://en.wikipedia.org/wiki/Varanasi_Airport","natlscale":10}},{"type":"Feature","geometry":{"type":"Point","coordinates":[-81.43671,23.039542]},"properties":{"type":"major","name":"Juan Gualberto Gomez","abbrev":"VRA","location":"terminal","gps_code":"MUVR","iata_code":"VRA","wikipedia":"http://en.wikipedia.org/wiki/Juan_Gualberto_G%C3%B3mez_Airport","natlscale":10}},{"type":"Feature","geometry":{"type":"Point","coordinates":[-92.819068,17.993066]},"properties":{"type":"mid","name":"Villahermosa","abbrev":"VSA","location":"terminal","gps_code":"MMVA","iata_code":"VSA","wikipedia":"http://en.wikipedia.org/wiki/Carlos_Rovirosa_P%C3%A9rez_International_Airport","natlscale":10}},{"type":"Feature","geometry":{"type":"Point","coordinates":[-99.945896,49.904728]},"properties":{"type":"mid","name":"Brandon","abbrev":"YBR","location":"terminal","gps_code":"CYBR","iata_code":"YBR","wikipedia":"http://en.wikipedia.org/wiki/Brandon_Airport","natlscale":10}},{"type":"Feature","geometry":{"type":"Point","coordinates":[-113.478839,53.674916]},"properties":{"type":"military major","name":"CFB Edmonton","abbrev":"YED","location":"ramp","gps_code":"CYED","iata_code":"YED","wikipedia":"http://en.wikipedia.org/wiki/CFB_Edmonton","natlscale":10}},{"type":"Feature","geometry":{"type":"Point","coordinates":[-68.536729,63.751152]},"properties":{"type":"mid","name":"Iqaluit","abbrev":"YFB","location":"terminal","gps_code":"CYFB","iata_code":"YFB","wikipedia":"http://en.wikipedia.org/wiki/Iqaluit_Airport","natlscale":10}},{"type":"Feature","geometry":{"type":"Point","coordinates":[-79.926423,43.163361]},"properties":{"type":"mid","name":"John C. Munro Hamilton Int'l","abbrev":"YHM","location":"terminal","gps_code":"CYHM","iata_code":"YHM","wikipedia":"http://en.wikipedia.org/wiki/John_C._Munro_Hamilton_International_Airport","natlscale":10}},{"type":"Feature","geometry":{"type":"Point","coordinates":[-111.22384,56.656317]},"properties":{"type":"mid","name":"Fort McMurray","abbrev":"YMM","location":"terminal","gps_code":"CYMM","iata_code":"YMM","wikipedia":"http://en.wikipedia.org/wiki/Fort_McMurray_Airport","natlscale":10}},{"type":"Feature","geometry":{"type":"Point","coordinates":[121.372047,37.407704]},"properties":{"type":"major and military","name":"Yantai","abbrev":"YNT","location":"terminal","gps_code":"ZSYT","iata_code":"YNT","wikipedia":"http://en.wikipedia.org/wiki/Yantai_Laishan_International_Airport","natlscale":10}},{"type":"Feature","geometry":{"type":"Point","coordinates":[-117.443663,56.231924]},"properties":{"type":"mid","name":"Peace River","abbrev":"YPE","location":"terminal","gps_code":"CYPE","iata_code":"YPE","wikipedia":"http://en.wikipedia.org/wiki/Peace_River_Airport","natlscale":10}},{"type":"Feature","geometry":{"type":"Point","coordinates":[-64.68867,46.116206]},"properties":{"type":"mid","name":"Greater Moncton Int'l","abbrev":"YQM","location":"terminal","gps_code":"CYQM","iata_code":"YQM","wikipedia":"http://en.wikipedia.org/wiki/Greater_Moncton_International_Airport","natlscale":10}},{"type":"Feature","geometry":{"type":"Point","coordinates":[-60.046937,46.167341]},"properties":{"type":"mid","name":"Sydney/J.A. Douglas McCurdy","abbrev":"YQY","location":"terminal","gps_code":"CYQY","iata_code":"YQY","wikipedia":"http://en.wikipedia.org/wiki/Sydney_Airport_(Nova_Scotia)","natlscale":10}},{"type":"Feature","geometry":{"type":"Point","coordinates":[-94.970802,74.718186]},"properties":{"type":"mid","name":"Resolute Bay","abbrev":"YRB","location":"runway","gps_code":"CYRB","iata_code":"YRB","wikipedia":"http://en.wikipedia.org/wiki/Resolute_Bay_Airport","natlscale":10}},{"type":"Feature","geometry":{"type":"Point","coordinates":[-111.96106,60.019875]},"properties":{"type":"mid","name":"Fort Smith","abbrev":"YSM","location":"runway","gps_code":"CYSM","iata_code":"YSM","wikipedia":"http://en.wikipedia.org/wiki/Fort_Smith_Airport","natlscale":10}},{"type":"Feature","geometry":{"type":"Point","coordinates":[-97.860733,55.797482]},"properties":{"type":"mid","name":"Thompson","abbrev":"YTH","location":"ramp","gps_code":"CYTH","iata_code":"YTH","wikipedia":"http://en.wikipedia.org/wiki/Thompson_Airport","natlscale":10}},{"type":"Feature","geometry":{"type":"Point","coordinates":[-81.372047,48.566158]},"properties":{"type":"mid","name":"Timmins","abbrev":"YTS","location":"ramp","gps_code":"CYTS","iata_code":"YTS","wikipedia":"http://en.wikipedia.org/wiki/Timmins_Airport","natlscale":10}},{"type":"Feature","geometry":{"type":"Point","coordinates":[-86.25,66.533302]},"properties":{"type":"mid","name":"Repulse Bay","abbrev":"YUT","location":"approximate","gps_code":"CYUT","iata_code":"YUT","wikipedia":"http://en.wikipedia.org/wiki/Repulse_Bay_Airport","natlscale":10}},{"type":"Feature","geometry":{"type":"Point","coordinates":[-68.433342,58.101959]},"properties":{"type":"mid","name":"Kuujjuaq","abbrev":"YVP","location":"approximate","gps_code":"CYVP","iata_code":"YVP","wikipedia":"http://en.wikipedia.org/wiki/Kuujjuaq_Airport","natlscale":10}},{"type":"Feature","geometry":{"type":"Point","coordinates":[-66.873009,52.926071]},"properties":{"type":"mid","name":"Wabush","abbrev":"YWK","location":"ramp","gps_code":"CYWK","iata_code":"YWK","wikipedia":"http://en.wikipedia.org/wiki/Wabush_Airport","natlscale":10}},{"type":"Feature","geometry":{"type":"Point","coordinates":[-113.522974,53.570944]},"properties":{"type":"mid","name":"Edmonton City Centre","abbrev":"YXD","location":"terminal","gps_code":"CYXD","iata_code":"YXD","wikipedia":"http://en.wikipedia.org/wiki/Edmonton_City_Centre_(Blatchford_Field)_Airport","natlscale":10}},{"type":"Feature","geometry":{"type":"Point","coordinates":[-120.736439,56.246035]},"properties":{"type":"mid","name":"Fort St. John (N. Peace)","abbrev":"YXJ","location":"approximate","gps_code":"CYXJ","iata_code":"YXJ","wikipedia":"http://en.wikipedia.org/wiki/Fort_St._John_Airport","natlscale":10}},{"type":"Feature","geometry":{"type":"Point","coordinates":[-79.42491,46.358711]},"properties":{"type":"mid","name":"North Bay/Jack Garland","abbrev":"YYB","location":"approximate","gps_code":"CYYB","iata_code":"YYB","wikipedia":"http://en.wikipedia.org/wiki/North_Bay/Jack_Garland_Airport","natlscale":10}},{"type":"Feature","geometry":{"type":"Point","coordinates":[7.687268,11.135296]},"properties":{"type":"mid","name":"Zaria","abbrev":"ZAR","location":"ramp","gps_code":"DNZA","iata_code":"ZAR","wikipedia":"http://en.wikipedia.org/wiki/Zaria_Airport","natlscale":10}},{"type":"Feature","geometry":{"type":"Point","coordinates":[86.974547,23.631218]},"properties":{"type":"mid","name":"Burnpur","abbrev":"VE23","location":"runway","gps_code":"VE23","iata_code":null,"wikipedia":"http://en.wikipedia.org/wiki/Burnpur_Airport","natlscale":10}},{"type":"Feature","geometry":{"type":"Point","coordinates":[77.350789,28.707797]},"properties":{"type":"mid","name":"Hindon Air Force Station","abbrev":"VIDX","location":"runway","gps_code":"VIDX","iata_code":null,"wikipedia":"http://en.wikipedia.org/wiki/Hindon_Air_Force_Station","natlscale":10}},{"type":"Feature","geometry":{"type":"Point","coordinates":[125.890825,39.411966]},"properties":{"type":"major","name":"Sunchon","abbrev":null,"location":"runway","gps_code":null,"iata_code":null,"wikipedia":"http://en.wikipedia.org/wiki/Sunchon_Airport","natlscale":10}},{"type":"Feature","geometry":{"type":"Point","coordinates":[19.403215,51.727207]},"properties":{"type":"mid","name":"Lodz Wladyslaw Reymont","abbrev":"EPLL","location":"terminal","gps_code":"EPLL","iata_code":"LCJ","wikipedia":"http://en.wikipedia.org/wiki/%C5%81%C3%B3d%C5%BA_W%C5%82adys%C5%82aw_Reymont_Airport","natlscale":10}},{"type":"Feature","geometry":{"type":"Point","coordinates":[76.878264,43.355419]},"properties":{"type":"mid and military","name":"Alma Ata N.W.","abbrev":"BXJ","location":"ramp","gps_code":"UAAR","iata_code":"BXJ","wikipedia":null,"natlscale":10}},{"type":"Feature","geometry":{"type":"Point","coordinates":[130.456205,46.843015]},"properties":{"type":"mid","name":"Jiamusi Dongjiao","abbrev":"JMU","location":"ramp","gps_code":"ZYJM","iata_code":"JMU","wikipedia":"http://en.wikipedia.org/wiki/Jiamusi_Dongjiao_Airport","natlscale":10}},{"type":"Feature","geometry":{"type":"Point","coordinates":[129.580152,44.534294]},"properties":{"type":"major","name":"Mudanjiang Hailang","abbrev":"MDG","location":"ramp","gps_code":"ZYMD","iata_code":"MDG","wikipedia":"http://en.wikipedia.org/wiki/Mudanjiang_Hailang_Airport","natlscale":10}},{"type":"Feature","geometry":{"type":"Point","coordinates":[33.290353,69.016871]},"properties":{"type":"military major","name":"Severomorsk-3 (Murmansk N.E.)","abbrev":"ULMM","location":"runway","gps_code":"ULMM","iata_code":null,"wikipedia":"http://en.wikipedia.org/wiki/Severomorsk-3","natlscale":10}},{"type":"Feature","geometry":{"type":"Point","coordinates":[43.145802,36.308601]},"properties":{"type":"mid","name":"Mosul Int'l","abbrev":"OSB","location":"runway","gps_code":"ORBM","iata_code":"OSB","wikipedia":"http://en.wikipedia.org/wiki/Mosul_International_Airport","natlscale":10}},{"type":"Feature","geometry":{"type":"Point","coordinates":[39.6354,47.277421]},"properties":{"type":"military mid","name":"Rostov N.","abbrev":null,"location":"runway","gps_code":null,"iata_code":null,"wikipedia":null,"natlscale":10}},{"type":"Feature","geometry":{"type":"Point","coordinates":[-0.701793,44.832111]},"properties":{"type":"major","name":"Bordeaux","abbrev":"BOD","location":"terminal","gps_code":"LFBD","iata_code":"BOD","wikipedia":"http://en.wikipedia.org/wiki/Bordeaux_-_M%C3%A9rignac_Airport","natlscale":10}},{"type":"Feature","geometry":{"type":"Point","coordinates":[6.954316,43.546098]},"properties":{"type":"mid","name":"Mandelieu","abbrev":"CEQ","location":"terminal","gps_code":"LFMD","iata_code":"CEQ","wikipedia":"http://en.wikipedia.org/wiki/Cannes_%E2%80%93_Mandelieu_Airport","natlscale":10}},{"type":"Feature","geometry":{"type":"Point","coordinates":[0.158654,49.361661]},"properties":{"type":"mid","name":"St Gatien","abbrev":"DOL","location":"ramp","gps_code":"LFRG","iata_code":"DOL","wikipedia":"http://en.wikipedia.org/wiki/Deauville_-_Saint-Gatien_Airport","natlscale":10}},{"type":"Feature","geometry":{"type":"Point","coordinates":[3.105965,50.571642]},"properties":{"type":"mid","name":"Lille-Lesquin","abbrev":"LIL","location":"terminal","gps_code":"LFQQ","iata_code":"LIL","wikipedia":"http://en.wikipedia.org/wiki/Lille_Airport","natlscale":10}},{"type":"Feature","geometry":{"type":"Point","coordinates":[1.373509,43.630463]},"properties":{"type":"major","name":"Toulouse-Blagnac","abbrev":"TLS","location":"terminal","gps_code":"LFBO","iata_code":"TLS","wikipedia":"http://en.wikipedia.org/wiki/Toulouse-Blagnac_Airport","natlscale":10}},{"type":"Feature","geometry":{"type":"Point","coordinates":[130.44419,33.584816]},"properties":{"type":"major","name":"Fukuoka","abbrev":"FUK","location":"terminal","gps_code":"RJFF","iata_code":"FUK","wikipedia":"http://en.wikipedia.org/wiki/Fukuoka_Airport","natlscale":10}},{"type":"Feature","geometry":{"type":"Point","coordinates":[132.419373,34.371382]},"properties":{"type":"mid","name":"Hiroshima-Nishi","abbrev":"HIW","location":"terminal","gps_code":"RJBH","iata_code":"HIW","wikipedia":"http://en.wikipedia.org/wiki/Hiroshima-Nishi_Airport","natlscale":10}},{"type":"Feature","geometry":{"type":"Point","coordinates":[136.919628,35.254053]},"properties":{"type":"mid","name":"Nagoya","abbrev":"NKM","location":"terminal","gps_code":"RJNA","iata_code":"NKM","wikipedia":"http://en.wikipedia.org/wiki/Nagoya_Airfield","natlscale":10}},{"type":"Feature","geometry":{"type":"Point","coordinates":[140.930247,38.138208]},"properties":{"type":"mid","name":"Sendai","abbrev":"SDJ","location":"terminal","gps_code":"RJSS","iata_code":"SDJ","wikipedia":"http://en.wikipedia.org/wiki/Sendai_Airport","natlscale":10}},{"type":"Feature","geometry":{"type":"Point","coordinates":[29.891349,69.723832]},"properties":{"type":"mid","name":"Kirkenes Hoybuktmoen","abbrev":"KKN","location":"terminal","gps_code":"ENKR","iata_code":"KKN","wikipedia":"http://en.wikipedia.org/wiki/Kirkenes_Airport%2C_H%C3%B8ybuktmoen","natlscale":10}},{"type":"Feature","geometry":{"type":"Point","coordinates":[-56.120177,-15.651147]},"properties":{"type":"mid","name":"Marechal Rondon Int'l","abbrev":"CGB","location":"terminal","gps_code":"SBCY","iata_code":"CGB","wikipedia":"http://en.wikipedia.org/wiki/Marechal_Rondon_International_Airport","natlscale":10}},{"type":"Feature","geometry":{"type":"Point","coordinates":[-48.544812,-27.664628]},"properties":{"type":"major","name":"Hercilio Luz Int'l","abbrev":"FLN","location":"terminal","gps_code":"SBFL","iata_code":"FLN","wikipedia":"http://en.wikipedia.org/wiki/Herc%C3%ADlio_Luz_International_Airport","natlscale":10}},{"type":"Feature","geometry":{"type":"Point","coordinates":[-48.80165,-26.224294]},"properties":{"type":"mid","name":"Joinville-Lauro C. de Loyola","abbrev":"JOI","location":"terminal","gps_code":"SBJV","iata_code":"JOI","wikipedia":"http://en.wikipedia.org/wiki/Joinville-Lauro_Carneiro_de_Loyola_Airport","natlscale":10}},{"type":"Feature","geometry":{"type":"Point","coordinates":[-34.948893,-7.146175]},"properties":{"type":"mid","name":"Presidente Castro Pinto Int'l","abbrev":"JPA","location":"terminal","gps_code":"SBJP","iata_code":"JPA","wikipedia":"http://en.wikipedia.org/wiki/Presidente_Castro_Pinto_International_Airport","natlscale":10}},{"type":"Feature","geometry":{"type":"Point","coordinates":[-35.248841,-5.899121]},"properties":{"type":"major","name":"Augusto Severo Int'l","abbrev":"NAT","location":"terminal","gps_code":"SJJQ","iata_code":"NAT","wikipedia":"http://en.wikipedia.org/wiki/Augusto_Severo_International_Airport","natlscale":10}},{"type":"Feature","geometry":{"type":"Point","coordinates":[-8.671272,41.236871]},"properties":{"type":"major","name":"Francisco Sa Carneiro","abbrev":"OPO","location":"terminal","gps_code":"LPPR","iata_code":"OPO","wikipedia":"http://en.wikipedia.org/wiki/Francisco_S%C3%A1_Carneiro_Airport","natlscale":10}},{"type":"Feature","geometry":{"type":"Point","coordinates":[-44.236234,-2.583509]},"properties":{"type":"mid","name":"Marechal Cunha Machado Int'l","abbrev":"SLZ","location":"terminal","gps_code":"SBSL","iata_code":"SLZ","wikipedia":"http://en.wikipedia.org/wiki/Marechal_Cunha_Machado_International_Airport","natlscale":10}},{"type":"Feature","geometry":{"type":"Point","coordinates":[-46.30527,-23.923759]},"properties":{"type":"military mid","name":"Santos Air Force Base","abbrev":"SSZ","location":"ramp","gps_code":"SBST","iata_code":"SSZ","wikipedia":"http://en.wikipedia.org/wiki/Santos_Air_Force_Base","natlscale":10}},{"type":"Feature","geometry":{"type":"Point","coordinates":[-42.82124,-5.063463]},"properties":{"type":"mid","name":"Teresina-Senador Petronio Portella","abbrev":"THE","location":"terminal","gps_code":"SBTE","iata_code":"THE","wikipedia":"http://en.wikipedia.org/wiki/Teresina_Airport","natlscale":10}},{"type":"Feature","geometry":{"type":"Point","coordinates":[-47.141079,-23.009624]},"properties":{"type":"mid","name":"Viracopos-Campinas Int'l","abbrev":"VCP","location":"terminal","gps_code":"SBKP","iata_code":"VCP","wikipedia":"http://en.wikipedia.org/wiki/Viracopos-Campinas_International_Airport","natlscale":10}},{"type":"Feature","geometry":{"type":"Point","coordinates":[-40.288537,-20.257416]},"properties":{"type":"mid","name":"Eurico de Aguiar Salles","abbrev":"VIX","location":"ramp","gps_code":"SBVT","iata_code":"VIX","wikipedia":"http://en.wikipedia.org/wiki/Eurico_de_Aguiar_Salles_Airport","natlscale":10}},{"type":"Feature","geometry":{"type":"Point","coordinates":[-0.55723,38.286641]},"properties":{"type":"major","name":"Alicante","abbrev":"ALC","location":"terminal","gps_code":"LEAL","iata_code":"ALC","wikipedia":"http://en.wikipedia.org/wiki/Alicante_Airport","natlscale":10}},{"type":"Feature","geometry":{"type":"Point","coordinates":[-2.371601,36.847767]},"properties":{"type":"mid","name":"Almeria","abbrev":"LEI","location":"terminal","gps_code":"LEAM","iata_code":"LEI","wikipedia":"http://en.wikipedia.org/wiki/Almer%C3%ADa_Airport","natlscale":10}},{"type":"Feature","geometry":{"type":"Point","coordinates":[-0.473475,39.49146]},"properties":{"type":"mid","name":"Valencia","abbrev":"VLC","location":"terminal","gps_code":"LEVC","iata_code":"VLC","wikipedia":"http://en.wikipedia.org/wiki/Valencia_Airport","natlscale":10}},{"type":"Feature","geometry":{"type":"Point","coordinates":[20.335152,67.825607]},"properties":{"type":"mid","name":"Kiruna_Airport","abbrev":"KRN","location":"terminal","gps_code":"ESNQ","iata_code":"KRN","wikipedia":"http://en.wikipedia.org/wiki/Kiruna_Airport","natlscale":10}},{"type":"Feature","geometry":{"type":"Point","coordinates":[16.233941,58.583381]},"properties":{"type":"major","name":"Norrkoping Airport","abbrev":"NRK","location":"terminal","gps_code":"ESSP","iata_code":"NRK","wikipedia":"http://en.wikipedia.org/wiki/Norrk%C3%B6ping_Airport","natlscale":10}},{"type":"Feature","geometry":{"type":"Point","coordinates":[107.575612,-6.900424]},"properties":{"type":"mid","name":"Husein Sastranegara Int'l","abbrev":"BDO","location":"runway","gps_code":"WICC","iata_code":"BDO","wikipedia":"http://en.wikipedia.org/wiki/Husein_Sastranegara_International_Airport","natlscale":10}},{"type":"Feature","geometry":{"type":"Point","coordinates":[-60.780079,-32.916227]},"properties":{"type":"mid","name":"Rosario  Islas Malvinas Int'l","abbrev":"ROS","location":"terminal","gps_code":"SAAR","iata_code":"ROS","wikipedia":"http://en.wikipedia.org/wiki/Rosario_%E2%80%93_Islas_Malvinas_International_Airport","natlscale":10}},{"type":"Feature","geometry":{"type":"Point","coordinates":[-35.792495,-9.514941]},"properties":{"type":"mid","name":"Maceio/Zumbi dos Palmares Int'l","abbrev":"MCZ","location":"terminal","gps_code":"SBMO","iata_code":"MCZ","wikipedia":"http://en.wikipedia.org/wiki/Zumbi_dos_Palmares_International_Airport","natlscale":10}},{"type":"Feature","geometry":{"type":"Point","coordinates":[34.390119,27.980404]},"properties":{"type":"mid","name":"Sharm el-Sheikh Int'l","abbrev":"SSH","location":"ramp","gps_code":"HESH","iata_code":"SSH","wikipedia":"http://en.wikipedia.org/wiki/Sharm_el-Sheikh_International_Airport","natlscale":10}},{"type":"Feature","geometry":{"type":"Point","coordinates":[34.775838,29.594499]},"properties":{"type":"mid","name":"Taba Int'l","abbrev":"TCP","location":"terminal","gps_code":"HETB","iata_code":"TCP","wikipedia":"http://en.wikipedia.org/wiki/Taba_International_Airport","natlscale":10}},{"type":"Feature","geometry":{"type":"Point","coordinates":[77.960909,27.157728]},"properties":{"type":"major and military","name":"Agra","abbrev":"AGR","location":"runway","gps_code":"VIAG","iata_code":"AGR","wikipedia":"http://en.wikipedia.org/wiki/Agra_Airport","natlscale":10}},{"type":"Feature","geometry":{"type":"Point","coordinates":[73.226289,22.336164]},"properties":{"type":"mid","name":"Vadodara","abbrev":"BDQ","location":"runway","gps_code":"VABO","iata_code":"BDQ","wikipedia":"http://en.wikipedia.org/wiki/Vadodara_Airport","natlscale":10}},{"type":"Feature","geometry":{"type":"Point","coordinates":[47.156584,34.346417]},"properties":{"type":"mid","name":"Shahid Ashrafi Esfahani","abbrev":"KSH","location":"runway","gps_code":"OICC","iata_code":"KSH","wikipedia":"http://en.wikipedia.org/wiki/Shahid_Ashrafi_Esfahani_Airport","natlscale":10}},{"type":"Feature","geometry":{"type":"Point","coordinates":[20.26804,32.087277]},"properties":{"type":"mid","name":"Benina Int'l","abbrev":"BEN","location":"ramp","gps_code":"HLLB","iata_code":"BEN","wikipedia":"http://en.wikipedia.org/wiki/Benina_International_Airport","natlscale":10}},{"type":"Feature","geometry":{"type":"Point","coordinates":[50.147725,26.270368]},"properties":{"type":"military major","name":"King Abdulaziz Ab","abbrev":"DHA","location":"ramp","gps_code":"OEDR","iata_code":"DHA","wikipedia":"http://en.wikipedia.org/wiki/Dhahran_International_Airport","natlscale":10}},{"type":"Feature","geometry":{"type":"Point","coordinates":[-57.984082,-31.437388]},"properties":{"type":"mid","name":"Nueva Hesperides Int'l","abbrev":"STY","location":"runway","gps_code":"SUSO","iata_code":"STY","wikipedia":"http://en.wikipedia.org/wiki/Nueva_Hesperides_International_Airport","natlscale":10}},{"type":"Feature","geometry":{"type":"Point","coordinates":[63.307354,45.963574]},"properties":{"type":"spaceport","name":"Baikonur Cosmodrome","abbrev":"BAIK","location":"approximate","gps_code":null,"iata_code":null,"wikipedia":"http://en.wikipedia.org/wiki/Baikonur_Cosmodrome","natlscale":10}},{"type":"Feature","geometry":{"type":"Point","coordinates":[-80.636968,28.51637]},"properties":{"type":"spaceport","name":"Kennedy Space Center","abbrev":"KSC","location":"approximate","gps_code":null,"iata_code":null,"wikipedia":"http://en.wikipedia.org/wiki/John_F._Kennedy_Space_Center","natlscale":10}},{"type":"Feature","geometry":{"type":"Point","coordinates":[-52.76843,5.23941]},"properties":{"type":"spaceport","name":"Centre Spatial Guyanais","abbrev":"CSG","location":"terminal","gps_code":null,"iata_code":null,"wikipedia":"http://en.wikipedia.org/wiki/Guiana_Space_Centre","natlscale":10}},{"type":"Feature","geometry":{"type":"Point","coordinates":[-70.007623,12.503464]},"properties":{"type":"mid","name":"Queen Beatrix Int'l","abbrev":"AUA","location":"terminal","gps_code":"TNCA","iata_code":"AUA","wikipedia":"http://en.wikipedia.org/wiki/Queen_Beatrix_International_Airport","natlscale":15}},{"type":"Feature","geometry":{"type":"Point","coordinates":[43.149713,11.552102]},"properties":{"type":"mid","name":"Djibouti-Ambouli Int'l","abbrev":"JIB","location":"terminal","gps_code":"HDAM","iata_code":"JIB","wikipedia":"http://en.wikipedia.org/wiki/Djibouti-Ambouli_International_Airport","natlscale":15}},{"type":"Feature","geometry":{"type":"Point","coordinates":[-70.178635,-20.54784]},"properties":{"type":"mid and military","name":"Diego Aracena Int'l","abbrev":"IQQ","location":"terminal","gps_code":"SCDA","iata_code":"IQQ","wikipedia":"http://en.wikipedia.org/wiki/Diego_Aracena_International_Airport","natlscale":15}},{"type":"Feature","geometry":{"type":"Point","coordinates":[29.309599,40.9043]},"properties":{"type":"major","name":"Sabiha Gokcen Havaalani","abbrev":"SAW","location":"terminal","gps_code":"LTFJ","iata_code":"SAW","wikipedia":"http://en.wikipedia.org/wiki/Sabiha_G%C3%B6k%C3%A7en_International_Airport","natlscale":15}},{"type":"Feature","geometry":{"type":"Point","coordinates":[162.957041,5.35201]},"properties":{"type":"mid","name":"Kosrae Island","abbrev":"KSA","location":"ramp","gps_code":"PTSA","iata_code":"KSA","wikipedia":"http://en.wikipedia.org/wiki/Kosrae_International_Airport","natlscale":15}},{"type":"Feature","geometry":{"type":"Point","coordinates":[179.195442,-8.524854]},"properties":{"type":"mid","name":"Funafuti Int'l","abbrev":"FUN","location":"ramp","gps_code":"NGFU","iata_code":"FUN","wikipedia":"http://en.wikipedia.org/wiki/Funafuti_International_Airport","natlscale":15}},{"type":"Feature","geometry":{"type":"Point","coordinates":[79.053798,21.089932]},"properties":{"type":"mid","name":"Dr. Babasaheb Ambedkar Int'l","abbrev":"NAG","location":"terminal","gps_code":"VANP","iata_code":"NAG","wikipedia":"http://en.wikipedia.org/wiki/Dr._Babasaheb_Ambedkar_International_Airport","natlscale":15}},{"type":"Feature","geometry":{"type":"Point","coordinates":[98.306038,8.107685]},"properties":{"type":"mid","name":"Phuket Int'l","abbrev":"HKT","location":"terminal","gps_code":"VTSP","iata_code":"HKT","wikipedia":"http://en.wikipedia.org/wiki/Phuket_International_Airport","natlscale":15}},{"type":"Feature","geometry":{"type":"Point","coordinates":[177.451151,-17.752913]},"properties":{"type":"mid","name":"Nadi Int'l","abbrev":"NAN","location":"terminal","gps_code":"NFFN","iata_code":"NAN","wikipedia":"http://en.wikipedia.org/wiki/Nadi_International_Airport","natlscale":15}},{"type":"Feature","geometry":{"type":"Point","coordinates":[-102.314094,21.701339]},"properties":{"type":"mid","name":"Lic. Jesus Teran Peredo Int'l","abbrev":"AGU","location":"terminal","gps_code":"MMAS","iata_code":"AGU","wikipedia":"http://en.wikipedia.org/wiki/Lic._Jes%C3%BAs_Ter%C3%A1n_Peredo_International_Airport","natlscale":15}},{"type":"Feature","geometry":{"type":"Point","coordinates":[8.123145,44.045877]},"properties":{"type":"mid","name":"Albenga","abbrev":"ALL","location":"ramp","gps_code":"LIMG","iata_code":"ALL","wikipedia":"http://en.wikipedia.org/wiki/Villanova_d'Albenga_International_Airport","natlscale":15}},{"type":"Feature","geometry":{"type":"Point","coordinates":[35.989707,31.722662]},"properties":{"type":"major","name":"Queen Alia Int'l","abbrev":"AMM","location":"terminal","gps_code":"OJAI","iata_code":"AMM","wikipedia":"http://en.wikipedia.org/wiki/Queen_Alia_International_Airport","natlscale":15}},{"type":"Feature","geometry":{"type":"Point","coordinates":[-70.33573,-18.349206]},"properties":{"type":"mid","name":"Chacalluta Int'l","abbrev":"ARI","location":"terminal","gps_code":"SCAR","iata_code":"ARI","wikipedia":"http://en.wikipedia.org/wiki/Chacalluta_Airport","natlscale":15}},{"type":"Feature","geometry":{"type":"Point","coordinates":[-13.05117,20.498271]},"properties":{"type":"mid","name":"Atar Int'l","abbrev":"ATR","location":"terminal","gps_code":"GQPA","iata_code":"ATR","wikipedia":"http://en.wikipedia.org/wiki/Atar_International_Airport","natlscale":15}},{"type":"Feature","geometry":{"type":"Point","coordinates":[-74.776556,10.886678]},"properties":{"type":"mid","name":"Ernesto Cortissoz Int'l","abbrev":"BAQ","location":"terminal","gps_code":"SKBQ","iata_code":"BAQ","wikipedia":"http://en.wikipedia.org/wiki/Ernesto_Cortissoz_International_Airport","natlscale":15}},{"type":"Feature","geometry":{"type":"Point","coordinates":[-71.16143,-41.145998]},"properties":{"type":"mid","name":"Teniente Luis Candelaria Int'l","abbrev":"BRC","location":"terminal","gps_code":"SAZS","iata_code":"BRC","wikipedia":"http://en.wikipedia.org/wiki/San_Carlos_de_Bariloche_Airport","natlscale":15}},{"type":"Feature","geometry":{"type":"Point","coordinates":[-5.068942,7.736105]},"properties":{"type":"mid","name":"Bouake","abbrev":"BYK","location":"terminal","gps_code":"DIBK","iata_code":"BYK","wikipedia":"http://en.wikipedia.org/wiki/Bouak%C3%A9_Airport","natlscale":15}},{"type":"Feature","geometry":{"type":"Point","coordinates":[-88.308206,17.536069]},"properties":{"type":"major","name":"Philip S. W. Goldson Int'l","abbrev":"BZE","location":"terminal","gps_code":"MZBZ","iata_code":"BZE","wikipedia":"http://en.wikipedia.org/wiki/Philip_S._W._Goldson_International_Airport","natlscale":15}},{"type":"Feature","geometry":{"type":"Point","coordinates":[-97.502268,27.774456]},"properties":{"type":"major","name":"Corpus Christi Int'l","abbrev":"CRP","location":"terminal","gps_code":"KCRP","iata_code":"CRP","wikipedia":"http://en.wikipedia.org/wiki/Corpus_Christi_International_Airport","natlscale":15}},{"type":"Feature","geometry":{"type":"Point","coordinates":[-68.956879,12.184835]},"properties":{"type":"mid","name":"Hato Int'l","abbrev":"CUR","location":"terminal","gps_code":"TNCC","iata_code":"CUR","wikipedia":"http://en.wikipedia.org/wiki/Hato_International_Airport","natlscale":15}},{"type":"Feature","geometry":{"type":"Point","coordinates":[-71.943664,-13.538219]},"properties":{"type":"major","name":"Velazco Astete Int'l","abbrev":"CUZ","location":"terminal","gps_code":"SPZO","iata_code":"CUZ","wikipedia":"http://en.wikipedia.org/wiki/Alejandro_Velasco_Astete_International_Airport","natlscale":15}},{"type":"Feature","geometry":{"type":"Point","coordinates":[39.207472,-6.86672]},"properties":{"type":"mid","name":"Julius Nyerere Int'l","abbrev":"DAR","location":"terminal","gps_code":"HTDA","iata_code":"DAR","wikipedia":"http://en.wikipedia.org/wiki/Julius_Nyerere_International_Airport","natlscale":15}},{"type":"Feature","geometry":{"type":"Point","coordinates":[-83.003968,42.409094]},"properties":{"type":"mid","name":"Detroit City","abbrev":"DET","location":"terminal","gps_code":"KDET","iata_code":"DET","wikipedia":"http://en.wikipedia.org/wiki/Coleman_A._Young_International_Airport","natlscale":15}},{"type":"Feature","geometry":{"type":"Point","coordinates":[125.524854,-8.549312]},"properties":{"type":"mid","name":"Presidente Nicolau Lobato Int'l","abbrev":"DIL","location":"terminal","gps_code":"WPDL","iata_code":"DIL","wikipedia":"http://en.wikipedia.org/wiki/Presidente_Nicolau_Lobato_International_Airport","natlscale":15}},{"type":"Feature","geometry":{"type":"Point","coordinates":[37.900253,55.414153]},"properties":{"type":"major","name":"Moscow Domodedovo Int'l","abbrev":"DME","location":"terminal","gps_code":"UUDD","iata_code":"DME","wikipedia":"http://en.wikipedia.org/wiki/Domodedovo_International_Airport","natlscale":15}},{"type":"Feature","geometry":{"type":"Point","coordinates":[170.200027,-45.923431]},"properties":{"type":"mid","name":"Dunedin Int'l","abbrev":"DUD","location":"terminal","gps_code":"NZDN","iata_code":"DUD","wikipedia":"http://en.wikipedia.org/wiki/Dunedin_International_Airport","natlscale":15}},{"type":"Feature","geometry":{"type":"Point","coordinates":[45.281786,-12.804947]},"properties":{"type":"mid","name":"Dzaoudzi Pamanzi Int'l","abbrev":"DZA","location":"terminal","gps_code":"FMCZ","iata_code":"DZA","wikipedia":"http://en.wikipedia.org/wiki/Dzaoudzi_Pamandzi_International_Airport","natlscale":15}},{"type":"Feature","geometry":{"type":"Point","coordinates":[-106.395715,31.799086]},"properties":{"type":"mid","name":"El Paso Int'l","abbrev":"ELP","location":"terminal","gps_code":"KELP","iata_code":"ELP","wikipedia":"http://en.wikipedia.org/wiki/El_Paso_International_Airport","natlscale":15}},{"type":"Feature","geometry":{"type":"Point","coordinates":[44.400063,40.152368]},"properties":{"type":"major","name":"Zvartnots Int'l","abbrev":"EVN","location":"terminal","gps_code":"UDYZ","iata_code":"EVN","wikipedia":"http://en.wikipedia.org/wiki/Zvartnots_International_Airport","natlscale":15}},{"type":"Feature","geometry":{"type":"Point","coordinates":[-97.355135,32.820753]},"properties":{"type":"major","name":"Fort Worth Meacham Field","abbrev":"FTW","location":"terminal","gps_code":"KFTW","iata_code":"FTW","wikipedia":"http://en.wikipedia.org/wiki/Fort_Worth_Meacham_International_Airport","natlscale":15}},{"type":"Feature","geometry":{"type":"Point","coordinates":[-71.146134,21.442124]},"properties":{"type":"mid","name":"JAGS McCartney Int'l","abbrev":"GDT","location":"terminal","gps_code":"MBGT","iata_code":"GDT","wikipedia":"http://en.wikipedia.org/wiki/JAGS_McCartney_International_Airport","natlscale":15}},{"type":"Feature","geometry":{"type":"Point","coordinates":[-94.855401,29.267124]},"properties":{"type":"mid","name":"Scholes Int'l","abbrev":"GLS","location":"terminal","gps_code":"KGLS","iata_code":"GLS","wikipedia":"http://en.wikipedia.org/wiki/Scholes_International_Airport_at_Galveston","natlscale":15}},{"type":"Feature","geometry":{"type":"Point","coordinates":[29.240053,-1.658318]},"properties":{"type":"mid","name":"Goma Int'l","abbrev":"GOM","location":"terminal","gps_code":"FZNA","iata_code":"GOM","wikipedia":"http://en.wikipedia.org/wiki/Goma_International_Airport","natlscale":15}},{"type":"Feature","geometry":{"type":"Point","coordinates":[13.372431,9.330689]},"properties":{"type":"mid","name":"Garoua Int'l","abbrev":"GOU","location":"terminal","gps_code":"FKKR","iata_code":"GOU","wikipedia":"http://en.wikipedia.org/wiki/Garoua_International_Airport","natlscale":15}},{"type":"Feature","geometry":{"type":"Point","coordinates":[144.80585,13.492646]},"properties":{"type":"major","name":"Antonio B. Won Pat Int'l","abbrev":"GUM","location":"terminal","gps_code":"PGUM","iata_code":"GUM","wikipedia":"http://en.wikipedia.org/wiki/Antonio_B._Won_Pat_International_Airport","natlscale":15}},{"type":"Feature","geometry":{"type":"Point","coordinates":[-87.40836,41.617793]},"properties":{"type":"mid","name":"Gary/Chicago Int'l","abbrev":"GYY","location":"terminal","gps_code":"KGYY","iata_code":"GYY","wikipedia":"http://en.wikipedia.org/wiki/Gary/Chicago_International_Airport","natlscale":15}},{"type":"Feature","geometry":{"type":"Point","coordinates":[43.274561,-11.536639]},"properties":{"type":"mid","name":"Prince Said Ibrahim Int'l","abbrev":"HAH","location":"terminal","gps_code":"FMCH","iata_code":"HAH","wikipedia":"http://en.wikipedia.org/wiki/Prince_Said_Ibrahim_International_Airport","natlscale":15}},{"type":"Feature","geometry":{"type":"Point","coordinates":[147.505996,-42.837608]},"properties":{"type":"mid","name":"Hobart Int'l","abbrev":"HBA","location":"terminal","gps_code":"YMHB","iata_code":"HBA","wikipedia":"http://en.wikipedia.org/wiki/Hobart_International_Airport","natlscale":15}},{"type":"Feature","geometry":{"type":"Point","coordinates":[160.045855,-9.427576]},"properties":{"type":"mid","name":"Honiara Int'l","abbrev":"HIR","location":"terminal","gps_code":"AGGH","iata_code":"HIR","wikipedia":"http://en.wikipedia.org/wiki/Honiara_International_Airport","natlscale":15}},{"type":"Feature","geometry":{"type":"Point","coordinates":[30.445131,50.412808]},"properties":{"type":"mid","name":"Kiev Zhuliany Int'l","abbrev":"IEV","location":"terminal","gps_code":"UKKK","iata_code":"IEV","wikipedia":"http://en.wikipedia.org/wiki/Kiev_International_Airport","natlscale":15}},{"type":"Feature","geometry":{"type":"Point","coordinates":[104.35586,52.272889]},"properties":{"type":"mid and military","name":"Irkutsk S.E.","abbrev":"IKT","location":"terminal","gps_code":"UIII","iata_code":"IKT","wikipedia":"http://en.wikipedia.org/wiki/Irkutsk_Airport","natlscale":15}},{"type":"Feature","geometry":{"type":"Point","coordinates":[-86.2734,39.730204]},"properties":{"type":"major","name":"Indianapolis Int'l","abbrev":"IND","location":"terminal","gps_code":"KIND","iata_code":"IND","wikipedia":"http://en.wikipedia.org/wiki/Indianapolis_International_Airport","natlscale":15}},{"type":"Feature","geometry":{"type":"Point","coordinates":[166.91614,-0.545037]},"properties":{"type":"mid","name":"Nauru Int'l","abbrev":"INU","location":"runway","gps_code":"ANYN","iata_code":"INU","wikipedia":"http://en.wikipedia.org/wiki/Nauru_International_Airport","natlscale":15}},{"type":"Feature","geometry":{"type":"Point","coordinates":[-109.430064,-27.158774]},"properties":{"type":"mid","name":"Mataveri Int'l","abbrev":"IPC","location":"terminal","gps_code":"SCIP","iata_code":"IPC","wikipedia":"http://en.wikipedia.org/wiki/Mataveri_International_Airport","natlscale":15}},{"type":"Feature","geometry":{"type":"Point","coordinates":[-23.486202,14.944989]},"properties":{"type":"mid","name":"Praia Int'l","abbrev":"RAI","location":"terminal","gps_code":"GVNP","iata_code":"RAI","wikipedia":"http://en.wikipedia.org/wiki/Praia_International_Airport","natlscale":15}},{"type":"Feature","geometry":{"type":"Point","coordinates":[-65.093767,-24.386101]},"properties":{"type":"mid","name":"Gob. Horacio Guzman Int'l","abbrev":"JUJ","location":"terminal","gps_code":"SASJ","iata_code":"JUJ","wikipedia":"http://en.wikipedia.org/wiki/Gobernador_Horacio_Guzm%C3%A1n_International_Airport","natlscale":15}},{"type":"Feature","geometry":{"type":"Point","coordinates":[115.91198,28.862489]},"properties":{"type":"mid","name":"Nanchang Changbei Int'l","abbrev":"KHN","location":"terminal","gps_code":"ZSCN","iata_code":"KHN","wikipedia":"http://en.wikipedia.org/wiki/Nanchang_Changbei_International_Airport","natlscale":15}},{"type":"Feature","geometry":{"type":"Point","coordinates":[102.742118,24.999996]},"properties":{"type":"major","name":"Kunming Wujiaba Int'l","abbrev":"KMG","location":"terminal","gps_code":"ZPPP","iata_code":"KMG","wikipedia":"http://en.wikipedia.org/wiki/Kunming_Wujiaba_International_Airport","natlscale":15}},{"type":"Feature","geometry":{"type":"Point","coordinates":[-1.659831,53.869082]},"properties":{"type":"major","name":"Leeds Bradford","abbrev":"LBA","location":"terminal","gps_code":"EGNM","iata_code":"LBA","wikipedia":"http://en.wikipedia.org/wiki/Leeds_Bradford_International_Airport","natlscale":15}},{"type":"Feature","geometry":{"type":"Point","coordinates":[9.410223,0.457139]},"properties":{"type":"mid","name":"Libreville Leon M'ba Int'l","abbrev":"LBV","location":"terminal","gps_code":"FOOL","iata_code":"LBV","wikipedia":"http://en.wikipedia.org/wiki/Libreville_International_Airport","natlscale":15}},{"type":"Feature","geometry":{"type":"Point","coordinates":[1.250932,6.166874]},"properties":{"type":"mid","name":"Lome Tokoin","abbrev":"LFW","location":"terminal","gps_code":"DXXX","iata_code":"LFW","wikipedia":"http://en.wikipedia.org/wiki/Lom%C3%A9-Tokoin_Airport","natlscale":15}},{"type":"Feature","geometry":{"type":"Point","coordinates":[23.946127,49.817851]},"properties":{"type":"mid and military","name":"Lviv Danylo Halytskyi Int'l","abbrev":"LWO","location":"runway","gps_code":"UKLL","iata_code":"LWO","wikipedia":"http://en.wikipedia.org/wiki/Lviv_International_Airport","natlscale":15}},